[
  {
    "name": "Oakridge 1",
    "coordinate": {
      "latitude": 48.529081,
      "longitude": -103.198815
    }
  },
  {
    "name": "Rivergrove 2",
    "coordinate": {
      "latitude": 27.029598,
      "longitude": -79.007532
    }
  },
  {
    "name": "Southview 3",
    "coordinate": {
      "latitude": 30.758041,
      "longitude": -121.716325
    }
  },
  {
    "name": "Southwood 4",
    "coordinate": {
      "latitude": 27.443779,
      "longitude": -80.823017
    }
  },
  {
    "name": "Springharbor 5",
    "coordinate": {
      "latitude": 25.300724,
      "longitude": -75.588741
    }
  },
  {
    "name": "Newton 6",
    "coordinate": {
      "latitude": 47.026004,
      "longitude": -103.619224
    }
  },
  {
    "name": "Southville 7",
    "coordinate": {
      "latitude": 38.181667,
      "longitude": -123.165718
    }
  },
  {
    "name": "Oaksprings 8",
    "coordinate": {
      "latitude": 46.648085,
      "longitude": -79.13336
    }
  },
  {
    "name": "Newharbor 9",
    "coordinate": {
      "latitude": 43.512513,
      "longitude": -94.197185
    }
  },
  {
    "name": "Cedarview 10",
    "coordinate": {
      "latitude": 41.534639,
      "longitude": -112.479437
    }
  },
  {
    "name": "Clearside 11",
    "coordinate": {
      "latitude": 49.342146,
      "longitude": -80.513482
    }
  },
  {
    "name": "Northport 12",
    "coordinate": {
      "latitude": 38.855191,
      "longitude": -117.699498
    }
  },
  {
    "name": "Silversprings 13",
    "coordinate": {
      "latitude": 44.576032,
      "longitude": -74.758417
    }
  },
  {
    "name": "Westside 14",
    "coordinate": {
      "latitude": 44.226002,
      "longitude": -88.697616
    }
  },
  {
    "name": "Oakcreek 15",
    "coordinate": {
      "latitude": 33.84841,
      "longitude": -69.377428
    }
  },
  {
    "name": "Bluegrove 16",
    "coordinate": {
      "latitude": 26.487505,
      "longitude": -71.429001
    }
  },
  {
    "name": "Blueheights 17",
    "coordinate": {
      "latitude": 24.78928,
      "longitude": -111.595714
    }
  },
  {
    "name": "Springhollow 18",
    "coordinate": {
      "latitude": 28.753535,
      "longitude": -81.399698
    }
  },
  {
    "name": "Southpoint 19",
    "coordinate": {
      "latitude": 33.541035,
      "longitude": -78.611103
    }
  },
  {
    "name": "Greenside 20",
    "coordinate": {
      "latitude": 26.171144,
      "longitude": -81.162859
    }
  },
  {
    "name": "Fairfalls 21",
    "coordinate": {
      "latitude": 32.950204,
      "longitude": -87.851361
    }
  },
  {
    "name": "Blueburg 22",
    "coordinate": {
      "latitude": 40.043646,
      "longitude": -88.649349
    }
  },
  {
    "name": "Silverton 23",
    "coordinate": {
      "latitude": 30.482695,
      "longitude": -123.626415
    }
  },
  {
    "name": "Clearwood 24",
    "coordinate": {
      "latitude": 47.182427,
      "longitude": -75.596293
    }
  },
  {
    "name": "Pinefield 25",
    "coordinate": {
      "latitude": 36.506523,
      "longitude": -105.437065
    }
  },
  {
    "name": "Cedarwood 26",
    "coordinate": {
      "latitude": 45.182804,
      "longitude": -107.162954
    }
  },
  {
    "name": "Eastcreek 27",
    "coordinate": {
      "latitude": 46.749587,
      "longitude": -115.736081
    }
  },
  {
    "name": "Fortridge 28",
    "coordinate": {
      "latitude": 42.068431,
      "longitude": -84.120021
    }
  },
  {
    "name": "Lakesprings 29",
    "coordinate": {
      "latitude": 32.121043,
      "longitude": -80.900856
    }
  },
  {
    "name": "Redview 30",
    "coordinate": {
      "latitude": 35.959409,
      "longitude": -107.961437
    }
  },
  {
    "name": "Maplewood 31",
    "coordinate": {
      "latitude": 32.582543,
      "longitude": -84.085086
    }
  },
  {
    "name": "Fortford 32",
    "coordinate": {
      "latitude": 40.189555,
      "longitude": -86.6753
    }
  },
  {
    "name": "Maplecreek 33",
    "coordinate": {
      "latitude": 31.209833,
      "longitude": -109.285606
    }
  },
  {
    "name": "Bluedale 34",
    "coordinate": {
      "latitude": 45.753754,
      "longitude": -78.432521
    }
  },
  {
    "name": "Northwood 35",
    "coordinate": {
      "latitude": 29.530306,
      "longitude": -78.380392
    }
  },
  {
    "name": "Newgrove 36",
    "coordinate": {
      "latitude": 35.525567,
      "longitude": -109.342655
    }
  },
  {
    "name": "Bluecreek 37",
    "coordinate": {
      "latitude": 37.875438,
      "longitude": -111.06514
    }
  },
  {
    "name": "Northsprings 38",
    "coordinate": {
      "latitude": 26.708007,
      "longitude": -116.677068
    }
  },
  {
    "name": "Greenmouth 39",
    "coordinate": {
      "latitude": 29.275267,
      "longitude": -73.018656
    }
  },
  {
    "name": "Newdale 40",
    "coordinate": {
      "latitude": 43.536122,
      "longitude": -115.594511
    }
  },
  {
    "name": "Clearview 41",
    "coordinate": {
      "latitude": 41.60027,
      "longitude": -79.314348
    }
  },
  {
    "name": "Lakeford 42",
    "coordinate": {
      "latitude": 40.600266,
      "longitude": -71.771515
    }
  },
  {
    "name": "Grandwood 43",
    "coordinate": {
      "latitude": 27.872397,
      "longitude": -79.394561
    }
  },
  {
    "name": "Fortheights 44",
    "coordinate": {
      "latitude": 30.785205,
      "longitude": -95.498661
    }
  },
  {
    "name": "Clearhollow 45",
    "coordinate": {
      "latitude": 36.780704,
      "longitude": -82.810151
    }
  },
  {
    "name": "Newcreek 46",
    "coordinate": {
      "latitude": 40.483101,
      "longitude": -71.218349
    }
  },
  {
    "name": "Newharbor 47",
    "coordinate": {
      "latitude": 35.924922,
      "longitude": -111.0826
    }
  },
  {
    "name": "Fairford 48",
    "coordinate": {
      "latitude": 29.533661,
      "longitude": -100.602848
    }
  },
  {
    "name": "Newpoint 49",
    "coordinate": {
      "latitude": 47.998315,
      "longitude": -95.898835
    }
  },
  {
    "name": "Greenton 50",
    "coordinate": {
      "latitude": 48.166941,
      "longitude": -87.926045
    }
  },
  {
    "name": "Northcreek 51",
    "coordinate": {
      "latitude": 34.590752,
      "longitude": -92.558947
    }
  },
  {
    "name": "Greenhollow 52",
    "coordinate": {
      "latitude": 31.88133,
      "longitude": -70.06966
    }
  },
  {
    "name": "Fairview 53",
    "coordinate": {
      "latitude": 30.549461,
      "longitude": -109.317682
    }
  },
  {
    "name": "Southsprings 54",
    "coordinate": {
      "latitude": 37.599462,
      "longitude": -80.501307
    }
  },
  {
    "name": "Westford 55",
    "coordinate": {
      "latitude": 40.163313,
      "longitude": -117.078292
    }
  },
  {
    "name": "Grandview 56",
    "coordinate": {
      "latitude": 33.724039,
      "longitude": -107.435382
    }
  },
  {
    "name": "Redharbor 57",
    "coordinate": {
      "latitude": 45.958558,
      "longitude": -95.154872
    }
  },
  {
    "name": "Maplesprings 58",
    "coordinate": {
      "latitude": 44.252462,
      "longitude": -75.72397
    }
  },
  {
    "name": "Fairhollow 59",
    "coordinate": {
      "latitude": 40.356141,
      "longitude": -69.012503
    }
  },
  {
    "name": "Westmouth 60",
    "coordinate": {
      "latitude": 40.436514,
      "longitude": -85.62278
    }
  },
  {
    "name": "Mountwood 61",
    "coordinate": {
      "latitude": 24.63668,
      "longitude": -82.597884
    }
  },
  {
    "name": "Portburg 62",
    "coordinate": {
      "latitude": 27.21192,
      "longitude": -99.624565
    }
  },
  {
    "name": "Goldenville 63",
    "coordinate": {
      "latitude": 28.901495,
      "longitude": -77.604048
    }
  },
  {
    "name": "Goldenridge 64",
    "coordinate": {
      "latitude": 33.911008,
      "longitude": -81.662643
    }
  },
  {
    "name": "Goldencreek 65",
    "coordinate": {
      "latitude": 38.762668,
      "longitude": -67.928038
    }
  },
  {
    "name": "Cedarfield 66",
    "coordinate": {
      "latitude": 35.167005,
      "longitude": -79.093535
    }
  },
  {
    "name": "Newwood 67",
    "coordinate": {
      "latitude": 47.494176,
      "longitude": -103.519948
    }
  },
  {
    "name": "Maplemouth 68",
    "coordinate": {
      "latitude": 25.507751,
      "longitude": -75.869377
    }
  },
  {
    "name": "Bluefalls 69",
    "coordinate": {
      "latitude": 44.585988,
      "longitude": -106.034451
    }
  },
  {
    "name": "Northport 70",
    "coordinate": {
      "latitude": 41.044952,
      "longitude": -94.399083
    }
  },
  {
    "name": "Southport 71",
    "coordinate": {
      "latitude": 35.674881,
      "longitude": -86.511083
    }
  },
  {
    "name": "Silverpoint 72",
    "coordinate": {
      "latitude": 48.437482,
      "longitude": -87.879783
    }
  },
  {
    "name": "Grandhollow 73",
    "coordinate": {
      "latitude": 30.263339,
      "longitude": -84.803403
    }
  },
  {
    "name": "Mapleside 74",
    "coordinate": {
      "latitude": 46.693513,
      "longitude": -114.466254
    }
  },
  {
    "name": "Clearton 75",
    "coordinate": {
      "latitude": 30.793501,
      "longitude": -85.072981
    }
  },
  {
    "name": "Silverport 76",
    "coordinate": {
      "latitude": 36.532163,
      "longitude": -113.750018
    }
  },
  {
    "name": "Northhollow 77",
    "coordinate": {
      "latitude": 35.305545,
      "longitude": -69.151195
    }
  },
  {
    "name": "Springview 78",
    "coordinate": {
      "latitude": 33.144637,
      "longitude": -119.68208
    }
  },
  {
    "name": "Riverridge 79",
    "coordinate": {
      "latitude": 41.110242,
      "longitude": -104.961208
    }
  },
  {
    "name": "Fortburg 80",
    "coordinate": {
      "latitude": 47.185184,
      "longitude": -112.269315
    }
  },
  {
    "name": "Fortville 81",
    "coordinate": {
      "latitude": 26.628735,
      "longitude": -78.343515
    }
  },
  {
    "name": "Goldenview 82",
    "coordinate": {
      "latitude": 47.762294,
      "longitude": -112.09253
    }
  },
  {
    "name": "Lakeford 83",
    "coordinate": {
      "latitude": 42.219908,
      "longitude": -89.674239
    }
  },
  {
    "name": "Maplemouth 84",
    "coordinate": {
      "latitude": 34.534111,
      "longitude": -103.32833
    }
  },
  {
    "name": "Clearburg 85",
    "coordinate": {
      "latitude": 34.798324,
      "longitude": -73.560565
    }
  },
  {
    "name": "Fortburg 86",
    "coordinate": {
      "latitude": 42.047273,
      "longitude": -77.23178
    }
  },
  {
    "name": "Grandfield 87",
    "coordinate": {
      "latitude": 26.898249,
      "longitude": -71.294302
    }
  },
  {
    "name": "Redburg 88",
    "coordinate": {
      "latitude": 39.51305,
      "longitude": -101.360531
    }
  },
  {
    "name": "Newsprings 89",
    "coordinate": {
      "latitude": 48.417679,
      "longitude": -120.881688
    }
  },
  {
    "name": "Fortside 90",
    "coordinate": {
      "latitude": 33.824258,
      "longitude": -68.2333
    }
  },
  {
    "name": "Fortdale 91",
    "coordinate": {
      "latitude": 30.930591,
      "longitude": -85.999045
    }
  },
  {
    "name": "Greengrove 92",
    "coordinate": {
      "latitude": 47.629875,
      "longitude": -79.38647
    }
  },
  {
    "name": "Mountview 93",
    "coordinate": {
      "latitude": 36.966433,
      "longitude": -78.425334
    }
  },
  {
    "name": "Cedarharbor 94",
    "coordinate": {
      "latitude": 37.094273,
      "longitude": -102.27824
    }
  },
  {
    "name": "Riverside 95",
    "coordinate": {
      "latitude": 25.445579,
      "longitude": -95.501411
    }
  },
  {
    "name": "Fairharbor 96",
    "coordinate": {
      "latitude": 40.665602,
      "longitude": -81.073299
    }
  },
  {
    "name": "Goldenton 97",
    "coordinate": {
      "latitude": 31.87628,
      "longitude": -118.736445
    }
  },
  {
    "name": "Lakeport 98",
    "coordinate": {
      "latitude": 45.892771,
      "longitude": -91.975681
    }
  },
  {
    "name": "Southfalls 99",
    "coordinate": {
      "latitude": 49.065684,
      "longitude": -77.966636
    }
  },
  {
    "name": "Portport 100",
    "coordinate": {
      "latitude": 42.570725,
      "longitude": -87.860019
    }
  },
  {
    "name": "Portview 101",
    "coordinate": {
      "latitude": 28.800536,
      "longitude": -89.468767
    }
  },
  {
    "name": "Fortburg 102",
    "coordinate": {
      "latitude": 48.045263,
      "longitude": -120.002027
    }
  },
  {
    "name": "Riverharbor 103",
    "coordinate": {
      "latitude": 43.837928,
      "longitude": -70.680253
    }
  },
  {
    "name": "Greenfalls 104",
    "coordinate": {
      "latitude": 25.423292,
      "longitude": -105.506959
    }
  },
  {
    "name": "Eastfalls 105",
    "coordinate": {
      "latitude": 33.823316,
      "longitude": -111.373217
    }
  },
  {
    "name": "Southharbor 106",
    "coordinate": {
      "latitude": 38.820977,
      "longitude": -77.76826
    }
  },
  {
    "name": "Greenwood 107",
    "coordinate": {
      "latitude": 47.225229,
      "longitude": -86.156709
    }
  },
  {
    "name": "Goldenview 108",
    "coordinate": {
      "latitude": 25.814937,
      "longitude": -94.116062
    }
  },
  {
    "name": "Riverburg 109",
    "coordinate": {
      "latitude": 35.855875,
      "longitude": -73.57186
    }
  },
  {
    "name": "Northville 110",
    "coordinate": {
      "latitude": 40.550624,
      "longitude": -77.222189
    }
  },
  {
    "name": "Westfield 111",
    "coordinate": {
      "latitude": 40.026437,
      "longitude": -117.298794
    }
  },
  {
    "name": "Pineharbor 112",
    "coordinate": {
      "latitude": 42.06837,
      "longitude": -97.851835
    }
  },
  {
    "name": "Springfalls 113",
    "coordinate": {
      "latitude": 31.981396,
      "longitude": -115.572479
    }
  },
  {
    "name": "Greenharbor 114",
    "coordinate": {
      "latitude": 29.275481,
      "longitude": -114.49712
    }
  },
  {
    "name": "Silvermouth 115",
    "coordinate": {
      "latitude": 39.528846,
      "longitude": -106.850358
    }
  },
  {
    "name": "Pineheights 116",
    "coordinate": {
      "latitude": 24.527906,
      "longitude": -117.514888
    }
  },
  {
    "name": "Goldendale 117",
    "coordinate": {
      "latitude": 35.536469,
      "longitude": -75.226599
    }
  },
  {
    "name": "Greenridge 118",
    "coordinate": {
      "latitude": 40.486161,
      "longitude": -93.313036
    }
  },
  {
    "name": "Westburg 119",
    "coordinate": {
      "latitude": 29.116755,
      "longitude": -93.899772
    }
  },
  {
    "name": "Grandcreek 120",
    "coordinate": {
      "latitude": 40.612696,
      "longitude": -97.757016
    }
  },
  {
    "name": "Westton 121",
    "coordinate": {
      "latitude": 33.251654,
      "longitude": -91.763255
    }
  },
  {
    "name": "Riverfalls 122",
    "coordinate": {
      "latitude": 25.397738,
      "longitude": -83.923742
    }
  },
  {
    "name": "Lakeport 123",
    "coordinate": {
      "latitude": 37.618766,
      "longitude": -76.652595
    }
  },
  {
    "name": "Lakecreek 124",
    "coordinate": {
      "latitude": 41.095623,
      "longitude": -122.634952
    }
  },
  {
    "name": "Lakehollow 125",
    "coordinate": {
      "latitude": 44.725366,
      "longitude": -122.203517
    }
  },
  {
    "name": "Grandcreek 126",
    "coordinate": {
      "latitude": 42.761991,
      "longitude": -98.695102
    }
  },
  {
    "name": "Silverwood 127",
    "coordinate": {
      "latitude": 28.007056,
      "longitude": -124.137169
    }
  },
  {
    "name": "Springside 128",
    "coordinate": {
      "latitude": 41.741245,
      "longitude": -79.473025
    }
  },
  {
    "name": "Springton 129",
    "coordinate": {
      "latitude": 24.585802,
      "longitude": -91.063561
    }
  },
  {
    "name": "Southview 130",
    "coordinate": {
      "latitude": 30.866493,
      "longitude": -104.373451
    }
  },
  {
    "name": "Mountpoint 131",
    "coordinate": {
      "latitude": 37.089221,
      "longitude": -123.234267
    }
  },
  {
    "name": "Northfalls 132",
    "coordinate": {
      "latitude": 27.093394,
      "longitude": -80.913571
    }
  },
  {
    "name": "Maplehollow 133",
    "coordinate": {
      "latitude": 31.345754,
      "longitude": -120.868969
    }
  },
  {
    "name": "Newsprings 134",
    "coordinate": {
      "latitude": 29.687026,
      "longitude": -124.083253
    }
  },
  {
    "name": "Clearcreek 135",
    "coordinate": {
      "latitude": 32.463419,
      "longitude": -122.715639
    }
  },
  {
    "name": "Clearcreek 136",
    "coordinate": {
      "latitude": 49.345351,
      "longitude": -110.206659
    }
  },
  {
    "name": "Springsprings 137",
    "coordinate": {
      "latitude": 25.278161,
      "longitude": -103.836367
    }
  },
  {
    "name": "Southheights 138",
    "coordinate": {
      "latitude": 36.868363,
      "longitude": -104.57654
    }
  },
  {
    "name": "Mapleburg 139",
    "coordinate": {
      "latitude": 40.676578,
      "longitude": -111.404536
    }
  },
  {
    "name": "Southburg 140",
    "coordinate": {
      "latitude": 32.956204,
      "longitude": -73.794887
    }
  },
  {
    "name": "Southridge 141",
    "coordinate": {
      "latitude": 45.334354,
      "longitude": -110.003112
    }
  },
  {
    "name": "Southfield 142",
    "coordinate": {
      "latitude": 30.98484,
      "longitude": -91.659543
    }
  },
  {
    "name": "Blueford 143",
    "coordinate": {
      "latitude": 26.152923,
      "longitude": -96.987987
    }
  },
  {
    "name": "Silverridge 144",
    "coordinate": {
      "latitude": 32.187407,
      "longitude": -78.621063
    }
  },
  {
    "name": "Oaksprings 145",
    "coordinate": {
      "latitude": 35.177612,
      "longitude": -76.3114
    }
  },
  {
    "name": "Oakford 146",
    "coordinate": {
      "latitude": 30.81177,
      "longitude": -84.164812
    }
  },
  {
    "name": "Northpoint 147",
    "coordinate": {
      "latitude": 44.039251,
      "longitude": -110.855025
    }
  },
  {
    "name": "Lakepoint 148",
    "coordinate": {
      "latitude": 45.865616,
      "longitude": -82.445933
    }
  },
  {
    "name": "Lakeport 149",
    "coordinate": {
      "latitude": 32.625188,
      "longitude": -94.947431
    }
  },
  {
    "name": "Springgrove 150",
    "coordinate": {
      "latitude": 34.981589,
      "longitude": -108.504375
    }
  },
  {
    "name": "Fairsprings 151",
    "coordinate": {
      "latitude": 37.156147,
      "longitude": -70.97544
    }
  },
  {
    "name": "Pinegrove 152",
    "coordinate": {
      "latitude": 33.871612,
      "longitude": -89.84188
    }
  },
  {
    "name": "Springpoint 153",
    "coordinate": {
      "latitude": 39.375877,
      "longitude": -95.201776
    }
  },
  {
    "name": "Riverridge 154",
    "coordinate": {
      "latitude": 36.297511,
      "longitude": -105.694325
    }
  },
  {
    "name": "Eastville 155",
    "coordinate": {
      "latitude": 49.044301,
      "longitude": -119.10023
    }
  },
  {
    "name": "Clearcreek 156",
    "coordinate": {
      "latitude": 26.460478,
      "longitude": -90.834402
    }
  },
  {
    "name": "Silverridge 157",
    "coordinate": {
      "latitude": 45.746131,
      "longitude": -93.265215
    }
  },
  {
    "name": "Eastdale 158",
    "coordinate": {
      "latitude": 43.13356,
      "longitude": -83.980583
    }
  },
  {
    "name": "Mountfalls 159",
    "coordinate": {
      "latitude": 31.870478,
      "longitude": -101.668104
    }
  },
  {
    "name": "Newside 160",
    "coordinate": {
      "latitude": 31.560852,
      "longitude": -123.748476
    }
  },
  {
    "name": "Mapleville 161",
    "coordinate": {
      "latitude": 41.990018,
      "longitude": -74.49096
    }
  },
  {
    "name": "Cedarport 162",
    "coordinate": {
      "latitude": 43.616445,
      "longitude": -115.008147
    }
  },
  {
    "name": "Greenville 163",
    "coordinate": {
      "latitude": 28.178471,
      "longitude": -105.965292
    }
  },
  {
    "name": "Portsprings 164",
    "coordinate": {
      "latitude": 24.828402,
      "longitude": -74.350339
    }
  },
  {
    "name": "Eastville 165",
    "coordinate": {
      "latitude": 34.318048,
      "longitude": -82.654174
    }
  },
  {
    "name": "Riverfield 166",
    "coordinate": {
      "latitude": 48.978516,
      "longitude": -110.311275
    }
  },
  {
    "name": "Westcreek 167",
    "coordinate": {
      "latitude": 46.227746,
      "longitude": -124.649435
    }
  },
  {
    "name": "Rivermouth 168",
    "coordinate": {
      "latitude": 27.202444,
      "longitude": -119.653128
    }
  },
  {
    "name": "Rivercreek 169",
    "coordinate": {
      "latitude": 31.478556,
      "longitude": -106.288679
    }
  },
  {
    "name": "Oakwood 170",
    "coordinate": {
      "latitude": 26.633573,
      "longitude": -95.422726
    }
  },
  {
    "name": "Springwood 171",
    "coordinate": {
      "latitude": 35.61872,
      "longitude": -94.22066
    }
  },
  {
    "name": "Mapleford 172",
    "coordinate": {
      "latitude": 30.792444,
      "longitude": -105.857868
    }
  },
  {
    "name": "Southhollow 173",
    "coordinate": {
      "latitude": 36.663143,
      "longitude": -101.938673
    }
  },
  {
    "name": "Clearpoint 174",
    "coordinate": {
      "latitude": 45.006121,
      "longitude": -117.22893
    }
  },
  {
    "name": "Eastford 175",
    "coordinate": {
      "latitude": 47.728229,
      "longitude": -119.956063
    }
  },
  {
    "name": "Pineridge 176",
    "coordinate": {
      "latitude": 32.23261,
      "longitude": -111.151498
    }
  },
  {
    "name": "Eastville 177",
    "coordinate": {
      "latitude": 25.026083,
      "longitude": -80.383016
    }
  },
  {
    "name": "Southridge 178",
    "coordinate": {
      "latitude": 49.337264,
      "longitude": -91.655887
    }
  },
  {
    "name": "Pineview 179",
    "coordinate": {
      "latitude": 35.126291,
      "longitude": -124.693001
    }
  },
  {
    "name": "Riverhollow 180",
    "coordinate": {
      "latitude": 38.817723,
      "longitude": -111.654036
    }
  },
  {
    "name": "Westhollow 181",
    "coordinate": {
      "latitude": 49.235372,
      "longitude": -94.277448
    }
  },
  {
    "name": "Newsprings 182",
    "coordinate": {
      "latitude": 25.530064,
      "longitude": -108.040524
    }
  },
  {
    "name": "Greensprings 183",
    "coordinate": {
      "latitude": 42.780171,
      "longitude": -109.668898
    }
  },
  {
    "name": "Oakheights 184",
    "coordinate": {
      "latitude": 47.42501,
      "longitude": -118.072605
    }
  },
  {
    "name": "Goldenville 185",
    "coordinate": {
      "latitude": 29.002144,
      "longitude": -102.559285
    }
  },
  {
    "name": "Grandside 186",
    "coordinate": {
      "latitude": 44.313908,
      "longitude": -68.459546
    }
  },
  {
    "name": "Cedarfield 187",
    "coordinate": {
      "latitude": 25.438435,
      "longitude": -69.623089
    }
  },
  {
    "name": "Springport 188",
    "coordinate": {
      "latitude": 31.1362,
      "longitude": -89.506471
    }
  },
  {
    "name": "Greenton 189",
    "coordinate": {
      "latitude": 33.109218,
      "longitude": -69.313222
    }
  },
  {
    "name": "Pinepoint 190",
    "coordinate": {
      "latitude": 44.302816,
      "longitude": -74.990163
    }
  },
  {
    "name": "Greenwood 191",
    "coordinate": {
      "latitude": 43.931591,
      "longitude": -106.62258
    }
  },
  {
    "name": "Riversprings 192",
    "coordinate": {
      "latitude": 47.71086,
      "longitude": -119.30975
    }
  },
  {
    "name": "Silverheights 193",
    "coordinate": {
      "latitude": 40.078227,
      "longitude": -89.658565
    }
  },
  {
    "name": "Silversprings 194",
    "coordinate": {
      "latitude": 28.938286,
      "longitude": -108.732878
    }
  },
  {
    "name": "Southburg 195",
    "coordinate": {
      "latitude": 32.109731,
      "longitude": -85.387395
    }
  },
  {
    "name": "Westfalls 196",
    "coordinate": {
      "latitude": 37.692403,
      "longitude": -112.144081
    }
  },
  {
    "name": "Fairton 197",
    "coordinate": {
      "latitude": 40.172089,
      "longitude": -117.2052
    }
  },
  {
    "name": "Fortfalls 198",
    "coordinate": {
      "latitude": 31.930784,
      "longitude": -101.895491
    }
  },
  {
    "name": "Fortdale 199",
    "coordinate": {
      "latitude": 40.933116,
      "longitude": -72.491886
    }
  },
  {
    "name": "Northgrove 200",
    "coordinate": {
      "latitude": 28.416754,
      "longitude": -94.754032
    }
  },
  {
    "name": "Oakville 201",
    "coordinate": {
      "latitude": 44.662397,
      "longitude": -69.299572
    }
  },
  {
    "name": "Cedargrove 202",
    "coordinate": {
      "latitude": 32.55288,
      "longitude": -98.592974
    }
  },
  {
    "name": "Mapleheights 203",
    "coordinate": {
      "latitude": 41.655784,
      "longitude": -122.744076
    }
  },
  {
    "name": "Goldenford 204",
    "coordinate": {
      "latitude": 29.600545,
      "longitude": -77.519566
    }
  },
  {
    "name": "Riverport 205",
    "coordinate": {
      "latitude": 46.456067,
      "longitude": -71.544198
    }
  },
  {
    "name": "Grandheights 206",
    "coordinate": {
      "latitude": 46.840629,
      "longitude": -104.545297
    }
  },
  {
    "name": "Lakesprings 207",
    "coordinate": {
      "latitude": 41.617861,
      "longitude": -93.4292
    }
  },
  {
    "name": "Springridge 208",
    "coordinate": {
      "latitude": 33.373253,
      "longitude": -68.342277
    }
  },
  {
    "name": "Maplepoint 209",
    "coordinate": {
      "latitude": 32.936394,
      "longitude": -119.37172
    }
  },
  {
    "name": "Springview 210",
    "coordinate": {
      "latitude": 30.843343,
      "longitude": -98.478503
    }
  },
  {
    "name": "Silverburg 211",
    "coordinate": {
      "latitude": 39.728542,
      "longitude": -89.466718
    }
  },
  {
    "name": "Goldenford 212",
    "coordinate": {
      "latitude": 30.548289,
      "longitude": -123.12399
    }
  },
  {
    "name": "Westcreek 213",
    "coordinate": {
      "latitude": 45.862066,
      "longitude": -111.970514
    }
  },
  {
    "name": "Southfield 214",
    "coordinate": {
      "latitude": 25.083919,
      "longitude": -119.71254
    }
  },
  {
    "name": "Fortfield 215",
    "coordinate": {
      "latitude": 45.315391,
      "longitude": -98.491024
    }
  },
  {
    "name": "Fairheights 216",
    "coordinate": {
      "latitude": 46.05231,
      "longitude": -116.244786
    }
  },
  {
    "name": "Clearhollow 217",
    "coordinate": {
      "latitude": 29.525652,
      "longitude": -70.564421
    }
  },
  {
    "name": "Greenport 218",
    "coordinate": {
      "latitude": 48.172861,
      "longitude": -72.843519
    }
  },
  {
    "name": "Springford 219",
    "coordinate": {
      "latitude": 34.688042,
      "longitude": -100.465288
    }
  },
  {
    "name": "Silverfalls 220",
    "coordinate": {
      "latitude": 45.31554,
      "longitude": -99.924831
    }
  },
  {
    "name": "Pineridge 221",
    "coordinate": {
      "latitude": 48.581567,
      "longitude": -92.08154
    }
  },
  {
    "name": "Eastton 222",
    "coordinate": {
      "latitude": 27.111262,
      "longitude": -68.041883
    }
  },
  {
    "name": "Oakpoint 223",
    "coordinate": {
      "latitude": 44.951158,
      "longitude": -68.09459
    }
  },
  {
    "name": "Lakefalls 224",
    "coordinate": {
      "latitude": 46.849458,
      "longitude": -77.507513
    }
  },
  {
    "name": "Fairgrove 225",
    "coordinate": {
      "latitude": 30.656614,
      "longitude": -110.434521
    }
  },
  {
    "name": "Fortfalls 226",
    "coordinate": {
      "latitude": 43.999096,
      "longitude": -104.059698
    }
  },
  {
    "name": "Eastford 227",
    "coordinate": {
      "latitude": 41.72651,
      "longitude": -100.400743
    }
  },
  {
    "name": "Northmouth 228",
    "coordinate": {
      "latitude": 46.550923,
      "longitude": -109.787941
    }
  },
  {
    "name": "Cedarharbor 229",
    "coordinate": {
      "latitude": 44.26796,
      "longitude": -75.720336
    }
  },
  {
    "name": "Cedarmouth 230",
    "coordinate": {
      "latitude": 46.145274,
      "longitude": -98.764013
    }
  },
  {
    "name": "Lakesprings 231",
    "coordinate": {
      "latitude": 26.627371,
      "longitude": -70.002985
    }
  },
  {
    "name": "Cedarford 232",
    "coordinate": {
      "latitude": 44.832988,
      "longitude": -116.593661
    }
  },
  {
    "name": "Portridge 233",
    "coordinate": {
      "latitude": 32.438749,
      "longitude": -108.648247
    }
  },
  {
    "name": "Fortcreek 234",
    "coordinate": {
      "latitude": 29.270205,
      "longitude": -82.014643
    }
  },
  {
    "name": "Clearfalls 235",
    "coordinate": {
      "latitude": 44.482483,
      "longitude": -80.522567
    }
  },
  {
    "name": "Newdale 236",
    "coordinate": {
      "latitude": 48.042474,
      "longitude": -70.361124
    }
  },
  {
    "name": "Pineford 237",
    "coordinate": {
      "latitude": 34.297134,
      "longitude": -88.152323
    }
  },
  {
    "name": "Silverwood 238",
    "coordinate": {
      "latitude": 34.45975,
      "longitude": -111.107469
    }
  },
  {
    "name": "Goldenmouth 239",
    "coordinate": {
      "latitude": 46.276111,
      "longitude": -91.847979
    }
  },
  {
    "name": "Pineheights 240",
    "coordinate": {
      "latitude": 28.505589,
      "longitude": -77.211483
    }
  },
  {
    "name": "Mountwood 241",
    "coordinate": {
      "latitude": 34.095236,
      "longitude": -98.660781
    }
  },
  {
    "name": "Springside 242",
    "coordinate": {
      "latitude": 28.825165,
      "longitude": -84.443474
    }
  },
  {
    "name": "Newpoint 243",
    "coordinate": {
      "latitude": 27.399746,
      "longitude": -115.765009
    }
  },
  {
    "name": "Cedarheights 244",
    "coordinate": {
      "latitude": 37.933619,
      "longitude": -102.251651
    }
  },
  {
    "name": "Eastside 245",
    "coordinate": {
      "latitude": 37.614191,
      "longitude": -102.335417
    }
  },
  {
    "name": "Newmouth 246",
    "coordinate": {
      "latitude": 25.788906,
      "longitude": -92.299356
    }
  },
  {
    "name": "Greenpoint 247",
    "coordinate": {
      "latitude": 27.338148,
      "longitude": -97.345318
    }
  },
  {
    "name": "Greenridge 248",
    "coordinate": {
      "latitude": 49.182103,
      "longitude": -84.744354
    }
  },
  {
    "name": "Southdale 249",
    "coordinate": {
      "latitude": 26.968767,
      "longitude": -117.032833
    }
  },
  {
    "name": "Greenton 250",
    "coordinate": {
      "latitude": 43.986815,
      "longitude": -109.095301
    }
  },
  {
    "name": "Pineridge 251",
    "coordinate": {
      "latitude": 45.66078,
      "longitude": -84.10598
    }
  },
  {
    "name": "Lakedale 252",
    "coordinate": {
      "latitude": 30.840756,
      "longitude": -80.825269
    }
  },
  {
    "name": "Pineside 253",
    "coordinate": {
      "latitude": 45.940213,
      "longitude": -118.702362
    }
  },
  {
    "name": "Clearton 254",
    "coordinate": {
      "latitude": 34.988851,
      "longitude": -81.294682
    }
  },
  {
    "name": "Southcreek 255",
    "coordinate": {
      "latitude": 29.137862,
      "longitude": -86.916984
    }
  },
  {
    "name": "Portheights 256",
    "coordinate": {
      "latitude": 32.645372,
      "longitude": -118.535983
    }
  },
  {
    "name": "Oakfalls 257",
    "coordinate": {
      "latitude": 41.394141,
      "longitude": -113.535949
    }
  },
  {
    "name": "Northdale 258",
    "coordinate": {
      "latitude": 26.878178,
      "longitude": -85.777435
    }
  },
  {
    "name": "Lakeside 259",
    "coordinate": {
      "latitude": 25.285175,
      "longitude": -117.701463
    }
  },
  {
    "name": "Greengrove 260",
    "coordinate": {
      "latitude": 31.152871,
      "longitude": -77.753431
    }
  },
  {
    "name": "Cedargrove 261",
    "coordinate": {
      "latitude": 25.506417,
      "longitude": -89.91845
    }
  },
  {
    "name": "Riverwood 262",
    "coordinate": {
      "latitude": 42.146726,
      "longitude": -107.668858
    }
  },
  {
    "name": "Fortridge 263",
    "coordinate": {
      "latitude": 34.250836,
      "longitude": -120.850405
    }
  },
  {
    "name": "Eastcreek 264",
    "coordinate": {
      "latitude": 42.289244,
      "longitude": -122.797293
    }
  },
  {
    "name": "Mounthollow 265",
    "coordinate": {
      "latitude": 27.827403,
      "longitude": -115.433969
    }
  },
  {
    "name": "Grandwood 266",
    "coordinate": {
      "latitude": 44.924283,
      "longitude": -111.111663
    }
  },
  {
    "name": "Newharbor 267",
    "coordinate": {
      "latitude": 43.927417,
      "longitude": -95.75409
    }
  },
  {
    "name": "Fairpoint 268",
    "coordinate": {
      "latitude": 49.023601,
      "longitude": -114.128959
    }
  },
  {
    "name": "Mapleburg 269",
    "coordinate": {
      "latitude": 31.130899,
      "longitude": -99.817895
    }
  },
  {
    "name": "Redview 270",
    "coordinate": {
      "latitude": 48.964003,
      "longitude": -118.766591
    }
  },
  {
    "name": "Grandmouth 271",
    "coordinate": {
      "latitude": 38.95832,
      "longitude": -90.277938
    }
  },
  {
    "name": "Lakeburg 272",
    "coordinate": {
      "latitude": 31.256497,
      "longitude": -107.888625
    }
  },
  {
    "name": "Silvermouth 273",
    "coordinate": {
      "latitude": 45.28448,
      "longitude": -82.258092
    }
  },
  {
    "name": "Northridge 274",
    "coordinate": {
      "latitude": 45.972287,
      "longitude": -68.869622
    }
  },
  {
    "name": "Riverheights 275",
    "coordinate": {
      "latitude": 48.675031,
      "longitude": -80.219776
    }
  },
  {
    "name": "Cedarpoint 276",
    "coordinate": {
      "latitude": 39.966334,
      "longitude": -105.581658
    }
  },
  {
    "name": "Eastton 277",
    "coordinate": {
      "latitude": 38.228234,
      "longitude": -82.558974
    }
  },
  {
    "name": "Fairfalls 278",
    "coordinate": {
      "latitude": 29.728069,
      "longitude": -91.272483
    }
  },
  {
    "name": "Pinedale 279",
    "coordinate": {
      "latitude": 44.412494,
      "longitude": -114.163311
    }
  },
  {
    "name": "Bluedale 280",
    "coordinate": {
      "latitude": 45.175806,
      "longitude": -92.601084
    }
  },
  {
    "name": "Redgrove 281",
    "coordinate": {
      "latitude": 34.577795,
      "longitude": -99.87033
    }
  },
  {
    "name": "Riverburg 282",
    "coordinate": {
      "latitude": 46.389846,
      "longitude": -68.565991
    }
  },
  {
    "name": "Portview 283",
    "coordinate": {
      "latitude": 39.90655,
      "longitude": -107.770208
    }
  },
  {
    "name": "Goldenburg 284",
    "coordinate": {
      "latitude": 26.476824,
      "longitude": -94.23198
    }
  },
  {
    "name": "Redsprings 285",
    "coordinate": {
      "latitude": 28.198792,
      "longitude": -99.512739
    }
  },
  {
    "name": "Newcreek 286",
    "coordinate": {
      "latitude": 48.733137,
      "longitude": -78.801344
    }
  },
  {
    "name": "Mapleburg 287",
    "coordinate": {
      "latitude": 37.881518,
      "longitude": -111.710173
    }
  },
  {
    "name": "Fortburg 288",
    "coordinate": {
      "latitude": 25.537027,
      "longitude": -104.850247
    }
  },
  {
    "name": "Silverwood 289",
    "coordinate": {
      "latitude": 42.895598,
      "longitude": -70.147905
    }
  },
  {
    "name": "Fairheights 290",
    "coordinate": {
      "latitude": 43.255976,
      "longitude": -73.982008
    }
  },
  {
    "name": "Greenheights 291",
    "coordinate": {
      "latitude": 46.393895,
      "longitude": -118.756917
    }
  },
  {
    "name": "Greenside 292",
    "coordinate": {
      "latitude": 46.573601,
      "longitude": -74.172247
    }
  },
  {
    "name": "Grandhollow 293",
    "coordinate": {
      "latitude": 38.095424,
      "longitude": -84.060448
    }
  },
  {
    "name": "Silverport 294",
    "coordinate": {
      "latitude": 37.22728,
      "longitude": -113.819943
    }
  },
  {
    "name": "Eastwood 295",
    "coordinate": {
      "latitude": 46.82748,
      "longitude": -113.510105
    }
  },
  {
    "name": "Oakridge 296",
    "coordinate": {
      "latitude": 47.41312,
      "longitude": -110.633657
    }
  },
  {
    "name": "Cedarford 297",
    "coordinate": {
      "latitude": 35.823069,
      "longitude": -68.674714
    }
  },
  {
    "name": "Oakheights 298",
    "coordinate": {
      "latitude": 35.10372,
      "longitude": -123.156595
    }
  },
  {
    "name": "Westfalls 299",
    "coordinate": {
      "latitude": 26.015646,
      "longitude": -111.14613
    }
  },
  {
    "name": "Northpoint 300",
    "coordinate": {
      "latitude": 35.261988,
      "longitude": -87.373557
    }
  },
  {
    "name": "Portmouth 301",
    "coordinate": {
      "latitude": 37.934848,
      "longitude": -98.393425
    }
  },
  {
    "name": "Northsprings 302",
    "coordinate": {
      "latitude": 30.727608,
      "longitude": -101.099409
    }
  },
  {
    "name": "Grandfalls 303",
    "coordinate": {
      "latitude": 40.622337,
      "longitude": -112.454704
    }
  },
  {
    "name": "Grandheights 304",
    "coordinate": {
      "latitude": 43.773682,
      "longitude": -122.792317
    }
  },
  {
    "name": "Mountmouth 305",
    "coordinate": {
      "latitude": 30.368822,
      "longitude": -106.849254
    }
  },
  {
    "name": "Northville 306",
    "coordinate": {
      "latitude": 35.003689,
      "longitude": -123.682306
    }
  },
  {
    "name": "Grandport 307",
    "coordinate": {
      "latitude": 43.087261,
      "longitude": -106.430548
    }
  },
  {
    "name": "Cleardale 308",
    "coordinate": {
      "latitude": 48.640248,
      "longitude": -95.52506
    }
  },
  {
    "name": "Newharbor 309",
    "coordinate": {
      "latitude": 44.223756,
      "longitude": -83.123654
    }
  },
  {
    "name": "Silverview 310",
    "coordinate": {
      "latitude": 36.404015,
      "longitude": -75.466353
    }
  },
  {
    "name": "Clearfalls 311",
    "coordinate": {
      "latitude": 40.879818,
      "longitude": -84.97882
    }
  },
  {
    "name": "Eastridge 312",
    "coordinate": {
      "latitude": 30.589248,
      "longitude": -102.954227
    }
  },
  {
    "name": "Silverfield 313",
    "coordinate": {
      "latitude": 24.537294,
      "longitude": -92.291405
    }
  },
  {
    "name": "Rivergrove 314",
    "coordinate": {
      "latitude": 25.241279,
      "longitude": -77.694075
    }
  },
  {
    "name": "Cedarfalls 315",
    "coordinate": {
      "latitude": 34.242505,
      "longitude": -106.574344
    }
  },
  {
    "name": "Goldenfalls 316",
    "coordinate": {
      "latitude": 28.162774,
      "longitude": -70.633315
    }
  },
  {
    "name": "Westharbor 317",
    "coordinate": {
      "latitude": 37.278062,
      "longitude": -118.507098
    }
  },
  {
    "name": "Faircreek 318",
    "coordinate": {
      "latitude": 37.90895,
      "longitude": -77.007002
    }
  },
  {
    "name": "Maplefalls 319",
    "coordinate": {
      "latitude": 32.355886,
      "longitude": -79.563029
    }
  },
  {
    "name": "Redhollow 320",
    "coordinate": {
      "latitude": 46.987399,
      "longitude": -109.89047
    }
  },
  {
    "name": "Newfield 321",
    "coordinate": {
      "latitude": 40.544133,
      "longitude": -119.260046
    }
  },
  {
    "name": "Newfield 322",
    "coordinate": {
      "latitude": 43.112171,
      "longitude": -116.078605
    }
  },
  {
    "name": "Clearwood 323",
    "coordinate": {
      "latitude": 44.790807,
      "longitude": -91.748627
    }
  },
  {
    "name": "Redpoint 324",
    "coordinate": {
      "latitude": 28.040048,
      "longitude": -91.465893
    }
  },
  {
    "name": "Oakfalls 325",
    "coordinate": {
      "latitude": 45.129218,
      "longitude": -97.975795
    }
  },
  {
    "name": "Lakefalls 326",
    "coordinate": {
      "latitude": 26.847605,
      "longitude": -96.077321
    }
  },
  {
    "name": "Silverton 327",
    "coordinate": {
      "latitude": 34.695715,
      "longitude": -78.250591
    }
  },
  {
    "name": "Northburg 328",
    "coordinate": {
      "latitude": 48.98844,
      "longitude": -104.500667
    }
  },
  {
    "name": "Southmouth 329",
    "coordinate": {
      "latitude": 47.263169,
      "longitude": -109.342328
    }
  },
  {
    "name": "Redside 330",
    "coordinate": {
      "latitude": 40.097121,
      "longitude": -121.168219
    }
  },
  {
    "name": "Springview 331",
    "coordinate": {
      "latitude": 46.406714,
      "longitude": -93.114972
    }
  },
  {
    "name": "Fairburg 332",
    "coordinate": {
      "latitude": 28.71389,
      "longitude": -72.779281
    }
  },
  {
    "name": "Mountheights 333",
    "coordinate": {
      "latitude": 38.963443,
      "longitude": -121.821417
    }
  },
  {
    "name": "Newcreek 334",
    "coordinate": {
      "latitude": 48.756794,
      "longitude": -71.127524
    }
  },
  {
    "name": "Cleardale 335",
    "coordinate": {
      "latitude": 30.012912,
      "longitude": -102.803666
    }
  },
  {
    "name": "Pineville 336",
    "coordinate": {
      "latitude": 43.844927,
      "longitude": -88.779382
    }
  },
  {
    "name": "Fairfield 337",
    "coordinate": {
      "latitude": 32.377355,
      "longitude": -68.243826
    }
  },
  {
    "name": "Oakmouth 338",
    "coordinate": {
      "latitude": 49.284401,
      "longitude": -87.550464
    }
  },
  {
    "name": "Cedarfalls 339",
    "coordinate": {
      "latitude": 27.407034,
      "longitude": -90.625035
    }
  },
  {
    "name": "Fairharbor 340",
    "coordinate": {
      "latitude": 38.020383,
      "longitude": -81.297825
    }
  },
  {
    "name": "Clearridge 341",
    "coordinate": {
      "latitude": 29.967802,
      "longitude": -80.718912
    }
  },
  {
    "name": "Southport 342",
    "coordinate": {
      "latitude": 32.146899,
      "longitude": -113.174208
    }
  },
  {
    "name": "Fortwood 343",
    "coordinate": {
      "latitude": 49.005434,
      "longitude": -122.670734
    }
  },
  {
    "name": "Greenview 344",
    "coordinate": {
      "latitude": 33.544169,
      "longitude": -121.747508
    }
  },
  {
    "name": "Grandmouth 345",
    "coordinate": {
      "latitude": 43.972775,
      "longitude": -70.432655
    }
  },
  {
    "name": "Westville 346",
    "coordinate": {
      "latitude": 35.116941,
      "longitude": -102.530949
    }
  },
  {
    "name": "Fortdale 347",
    "coordinate": {
      "latitude": 41.268752,
      "longitude": -108.359668
    }
  },
  {
    "name": "Northharbor 348",
    "coordinate": {
      "latitude": 35.470766,
      "longitude": -73.498642
    }
  },
  {
    "name": "Greenridge 349",
    "coordinate": {
      "latitude": 29.149766,
      "longitude": -107.609358
    }
  },
  {
    "name": "Springpoint 350",
    "coordinate": {
      "latitude": 41.975115,
      "longitude": -81.353483
    }
  },
  {
    "name": "Clearside 351",
    "coordinate": {
      "latitude": 47.048518,
      "longitude": -97.516921
    }
  },
  {
    "name": "Westpoint 352",
    "coordinate": {
      "latitude": 32.824633,
      "longitude": -75.217882
    }
  },
  {
    "name": "Maplefield 353",
    "coordinate": {
      "latitude": 42.712834,
      "longitude": -102.192053
    }
  },
  {
    "name": "Greenpoint 354",
    "coordinate": {
      "latitude": 32.420435,
      "longitude": -112.738164
    }
  },
  {
    "name": "Newville 355",
    "coordinate": {
      "latitude": 37.131806,
      "longitude": -103.407074
    }
  },
  {
    "name": "Grandheights 356",
    "coordinate": {
      "latitude": 42.475907,
      "longitude": -77.539031
    }
  },
  {
    "name": "Greenheights 357",
    "coordinate": {
      "latitude": 42.24793,
      "longitude": -120.958388
    }
  },
  {
    "name": "Greenport 358",
    "coordinate": {
      "latitude": 31.023627,
      "longitude": -93.161497
    }
  },
  {
    "name": "Oakgrove 359",
    "coordinate": {
      "latitude": 42.961497,
      "longitude": -75.69863
    }
  },
  {
    "name": "Mountcreek 360",
    "coordinate": {
      "latitude": 32.74125,
      "longitude": -122.580648
    }
  },
  {
    "name": "Goldenwood 361",
    "coordinate": {
      "latitude": 39.715193,
      "longitude": -99.385215
    }
  },
  {
    "name": "Springpoint 362",
    "coordinate": {
      "latitude": 26.255538,
      "longitude": -92.925504
    }
  },
  {
    "name": "Cedarview 363",
    "coordinate": {
      "latitude": 27.888255,
      "longitude": -108.414881
    }
  },
  {
    "name": "Clearton 364",
    "coordinate": {
      "latitude": 33.942616,
      "longitude": -114.668135
    }
  },
  {
    "name": "Redfalls 365",
    "coordinate": {
      "latitude": 30.510717,
      "longitude": -103.581213
    }
  },
  {
    "name": "Southfield 366",
    "coordinate": {
      "latitude": 44.85459,
      "longitude": -100.74163
    }
  },
  {
    "name": "Springville 367",
    "coordinate": {
      "latitude": 31.341477,
      "longitude": -122.351918
    }
  },
  {
    "name": "Pinepoint 368",
    "coordinate": {
      "latitude": 35.119206,
      "longitude": -93.039816
    }
  },
  {
    "name": "Goldenhollow 369",
    "coordinate": {
      "latitude": 42.838146,
      "longitude": -116.135776
    }
  },
  {
    "name": "Fairwood 370",
    "coordinate": {
      "latitude": 44.423199,
      "longitude": -87.146843
    }
  },
  {
    "name": "Goldensprings 371",
    "coordinate": {
      "latitude": 36.357698,
      "longitude": -92.395523
    }
  },
  {
    "name": "Newsprings 372",
    "coordinate": {
      "latitude": 43.045438,
      "longitude": -92.302667
    }
  },
  {
    "name": "Blueharbor 373",
    "coordinate": {
      "latitude": 37.036945,
      "longitude": -87.769684
    }
  },
  {
    "name": "Silverton 374",
    "coordinate": {
      "latitude": 30.088492,
      "longitude": -78.68326
    }
  },
  {
    "name": "Lakeview 375",
    "coordinate": {
      "latitude": 40.643065,
      "longitude": -94.373231
    }
  },
  {
    "name": "Grandford 376",
    "coordinate": {
      "latitude": 26.897346,
      "longitude": -124.696878
    }
  },
  {
    "name": "Greenport 377",
    "coordinate": {
      "latitude": 28.588917,
      "longitude": -67.312713
    }
  },
  {
    "name": "Newview 378",
    "coordinate": {
      "latitude": 47.250584,
      "longitude": -67.853678
    }
  },
  {
    "name": "Grandport 379",
    "coordinate": {
      "latitude": 48.244758,
      "longitude": -93.475751
    }
  },
  {
    "name": "Northford 380",
    "coordinate": {
      "latitude": 41.508688,
      "longitude": -70.576015
    }
  },
  {
    "name": "Northfield 381",
    "coordinate": {
      "latitude": 26.974374,
      "longitude": -83.634254
    }
  },
  {
    "name": "Lakeridge 382",
    "coordinate": {
      "latitude": 36.294539,
      "longitude": -104.915398
    }
  },
  {
    "name": "Southharbor 383",
    "coordinate": {
      "latitude": 32.423777,
      "longitude": -72.871358
    }
  },
  {
    "name": "Portsprings 384",
    "coordinate": {
      "latitude": 26.436474,
      "longitude": -122.948904
    }
  },
  {
    "name": "Maplemouth 385",
    "coordinate": {
      "latitude": 28.035687,
      "longitude": -104.529594
    }
  },
  {
    "name": "Greenford 386",
    "coordinate": {
      "latitude": 46.983091,
      "longitude": -80.457764
    }
  },
  {
    "name": "Mapledale 387",
    "coordinate": {
      "latitude": 25.227811,
      "longitude": -122.482099
    }
  },
  {
    "name": "Northwood 388",
    "coordinate": {
      "latitude": 27.737143,
      "longitude": -117.674985
    }
  },
  {
    "name": "Greenheights 389",
    "coordinate": {
      "latitude": 36.523755,
      "longitude": -85.873252
    }
  },
  {
    "name": "Southheights 390",
    "coordinate": {
      "latitude": 39.930706,
      "longitude": -98.239522
    }
  },
  {
    "name": "Goldenton 391",
    "coordinate": {
      "latitude": 46.853817,
      "longitude": -69.864662
    }
  },
  {
    "name": "Fairview 392",
    "coordinate": {
      "latitude": 35.850916,
      "longitude": -121.079831
    }
  },
  {
    "name": "Eastford 393",
    "coordinate": {
      "latitude": 38.45146,
      "longitude": -79.720716
    }
  },
  {
    "name": "Mapleport 394",
    "coordinate": {
      "latitude": 34.719742,
      "longitude": -74.77444
    }
  },
  {
    "name": "Greenfalls 395",
    "coordinate": {
      "latitude": 32.6687,
      "longitude": -74.337259
    }
  },
  {
    "name": "Cedarwood 396",
    "coordinate": {
      "latitude": 40.806037,
      "longitude": -98.695728
    }
  },
  {
    "name": "Pinedale 397",
    "coordinate": {
      "latitude": 36.792335,
      "longitude": -101.823292
    }
  },
  {
    "name": "Goldenheights 398",
    "coordinate": {
      "latitude": 43.597316,
      "longitude": -69.868707
    }
  },
  {
    "name": "Riverside 399",
    "coordinate": {
      "latitude": 35.429285,
      "longitude": -86.545853
    }
  },
  {
    "name": "Oakharbor 400",
    "coordinate": {
      "latitude": 38.533531,
      "longitude": -70.711509
    }
  },
  {
    "name": "Pineview 401",
    "coordinate": {
      "latitude": 35.712026,
      "longitude": -90.279901
    }
  },
  {
    "name": "Silverharbor 402",
    "coordinate": {
      "latitude": 31.050722,
      "longitude": -95.088862
    }
  },
  {
    "name": "Southfalls 403",
    "coordinate": {
      "latitude": 34.857971,
      "longitude": -73.647787
    }
  },
  {
    "name": "Fairview 404",
    "coordinate": {
      "latitude": 44.975479,
      "longitude": -111.045671
    }
  },
  {
    "name": "Fairview 405",
    "coordinate": {
      "latitude": 25.552779,
      "longitude": -99.421342
    }
  },
  {
    "name": "Greenfalls 406",
    "coordinate": {
      "latitude": 42.470599,
      "longitude": -83.162211
    }
  },
  {
    "name": "Riverport 407",
    "coordinate": {
      "latitude": 36.983104,
      "longitude": -113.786515
    }
  },
  {
    "name": "Bluedale 408",
    "coordinate": {
      "latitude": 30.855328,
      "longitude": -83.531642
    }
  },
  {
    "name": "Silverport 409",
    "coordinate": {
      "latitude": 29.482248,
      "longitude": -96.017617
    }
  },
  {
    "name": "Porthollow 410",
    "coordinate": {
      "latitude": 36.662018,
      "longitude": -118.674774
    }
  },
  {
    "name": "Clearfield 411",
    "coordinate": {
      "latitude": 36.384712,
      "longitude": -74.111084
    }
  },
  {
    "name": "Oakfield 412",
    "coordinate": {
      "latitude": 45.749105,
      "longitude": -89.007061
    }
  },
  {
    "name": "Greenford 413",
    "coordinate": {
      "latitude": 43.257864,
      "longitude": -94.026443
    }
  },
  {
    "name": "Silverburg 414",
    "coordinate": {
      "latitude": 42.182463,
      "longitude": -123.014996
    }
  },
  {
    "name": "Greensprings 415",
    "coordinate": {
      "latitude": 42.189271,
      "longitude": -82.675464
    }
  },
  {
    "name": "Fairhollow 416",
    "coordinate": {
      "latitude": 27.130993,
      "longitude": -108.608352
    }
  },
  {
    "name": "Portcreek 417",
    "coordinate": {
      "latitude": 46.354282,
      "longitude": -74.690168
    }
  },
  {
    "name": "Grandburg 418",
    "coordinate": {
      "latitude": 37.137151,
      "longitude": -94.371313
    }
  },
  {
    "name": "Springpoint 419",
    "coordinate": {
      "latitude": 46.106468,
      "longitude": -100.66774
    }
  },
  {
    "name": "Northridge 420",
    "coordinate": {
      "latitude": 39.570012,
      "longitude": -104.83889
    }
  },
  {
    "name": "Fortridge 421",
    "coordinate": {
      "latitude": 26.30027,
      "longitude": -111.076256
    }
  },
  {
    "name": "Greenfield 422",
    "coordinate": {
      "latitude": 28.850558,
      "longitude": -74.846253
    }
  },
  {
    "name": "Northview 423",
    "coordinate": {
      "latitude": 46.427877,
      "longitude": -96.378731
    }
  },
  {
    "name": "Lakedale 424",
    "coordinate": {
      "latitude": 47.986112,
      "longitude": -84.860458
    }
  },
  {
    "name": "Southridge 425",
    "coordinate": {
      "latitude": 26.309575,
      "longitude": -95.871961
    }
  },
  {
    "name": "Maplegrove 426",
    "coordinate": {
      "latitude": 33.541171,
      "longitude": -119.148536
    }
  },
  {
    "name": "Riverview 427",
    "coordinate": {
      "latitude": 35.596685,
      "longitude": -112.732341
    }
  },
  {
    "name": "Grandsprings 428",
    "coordinate": {
      "latitude": 41.584004,
      "longitude": -121.841801
    }
  },
  {
    "name": "Mapleford 429",
    "coordinate": {
      "latitude": 47.369541,
      "longitude": -82.787223
    }
  },
  {
    "name": "Lakeford 430",
    "coordinate": {
      "latitude": 28.179992,
      "longitude": -84.573665
    }
  },
  {
    "name": "Silverdale 431",
    "coordinate": {
      "latitude": 30.033076,
      "longitude": -121.41681
    }
  },
  {
    "name": "Fortharbor 432",
    "coordinate": {
      "latitude": 42.2154,
      "longitude": -112.617617
    }
  },
  {
    "name": "Springford 433",
    "coordinate": {
      "latitude": 45.465059,
      "longitude": -94.300427
    }
  },
  {
    "name": "Pinegrove 434",
    "coordinate": {
      "latitude": 36.008524,
      "longitude": -104.963596
    }
  },
  {
    "name": "Cedarsprings 435",
    "coordinate": {
      "latitude": 41.467126,
      "longitude": -78.651243
    }
  },
  {
    "name": "Southridge 436",
    "coordinate": {
      "latitude": 25.411523,
      "longitude": -114.073429
    }
  },
  {
    "name": "Goldenharbor 437",
    "coordinate": {
      "latitude": 47.584592,
      "longitude": -100.676633
    }
  },
  {
    "name": "Grandridge 438",
    "coordinate": {
      "latitude": 28.376006,
      "longitude": -74.198167
    }
  },
  {
    "name": "Westford 439",
    "coordinate": {
      "latitude": 39.53675,
      "longitude": -107.978936
    }
  },
  {
    "name": "Cedarville 440",
    "coordinate": {
      "latitude": 36.261192,
      "longitude": -121.170285
    }
  },
  {
    "name": "Northheights 441",
    "coordinate": {
      "latitude": 29.404381,
      "longitude": -77.270769
    }
  },
  {
    "name": "Goldenpoint 442",
    "coordinate": {
      "latitude": 27.577228,
      "longitude": -73.033367
    }
  },
  {
    "name": "Silverwood 443",
    "coordinate": {
      "latitude": 36.391797,
      "longitude": -83.373025
    }
  },
  {
    "name": "Fortheights 444",
    "coordinate": {
      "latitude": 48.193845,
      "longitude": -89.338262
    }
  },
  {
    "name": "Redport 445",
    "coordinate": {
      "latitude": 42.344917,
      "longitude": -102.246504
    }
  },
  {
    "name": "Oakcreek 446",
    "coordinate": {
      "latitude": 32.324956,
      "longitude": -90.445037
    }
  },
  {
    "name": "Maplemouth 447",
    "coordinate": {
      "latitude": 47.014274,
      "longitude": -80.761446
    }
  },
  {
    "name": "Lakesprings 448",
    "coordinate": {
      "latitude": 26.378791,
      "longitude": -113.526282
    }
  },
  {
    "name": "Clearheights 449",
    "coordinate": {
      "latitude": 38.067554,
      "longitude": -74.239415
    }
  },
  {
    "name": "Newgrove 450",
    "coordinate": {
      "latitude": 30.220602,
      "longitude": -114.73533
    }
  },
  {
    "name": "Lakefield 451",
    "coordinate": {
      "latitude": 38.597927,
      "longitude": -71.438746
    }
  },
  {
    "name": "Northridge 452",
    "coordinate": {
      "latitude": 35.099087,
      "longitude": -73.792981
    }
  },
  {
    "name": "Greenmouth 453",
    "coordinate": {
      "latitude": 25.135943,
      "longitude": -70.447397
    }
  },
  {
    "name": "Lakeharbor 454",
    "coordinate": {
      "latitude": 41.759502,
      "longitude": -108.50265
    }
  },
  {
    "name": "Mountside 455",
    "coordinate": {
      "latitude": 35.368416,
      "longitude": -123.139548
    }
  },
  {
    "name": "Mapleton 456",
    "coordinate": {
      "latitude": 43.82563,
      "longitude": -109.931041
    }
  },
  {
    "name": "Fairwood 457",
    "coordinate": {
      "latitude": 42.86045,
      "longitude": -119.01411
    }
  },
  {
    "name": "Fairburg 458",
    "coordinate": {
      "latitude": 35.317942,
      "longitude": -87.475102
    }
  },
  {
    "name": "Eastheights 459",
    "coordinate": {
      "latitude": 24.937197,
      "longitude": -120.718612
    }
  },
  {
    "name": "Riverridge 460",
    "coordinate": {
      "latitude": 41.529626,
      "longitude": -95.93101
    }
  },
  {
    "name": "Grandhollow 461",
    "coordinate": {
      "latitude": 41.192816,
      "longitude": -73.535842
    }
  },
  {
    "name": "Grandview 462",
    "coordinate": {
      "latitude": 44.863881,
      "longitude": -119.884751
    }
  },
  {
    "name": "Bluefield 463",
    "coordinate": {
      "latitude": 26.624458,
      "longitude": -88.872138
    }
  },
  {
    "name": "Westheights 464",
    "coordinate": {
      "latitude": 34.925974,
      "longitude": -67.982622
    }
  },
  {
    "name": "Grandville 465",
    "coordinate": {
      "latitude": 43.325876,
      "longitude": -108.098133
    }
  },
  {
    "name": "Rivergrove 466",
    "coordinate": {
      "latitude": 39.946208,
      "longitude": -85.6104
    }
  },
  {
    "name": "Fairridge 467",
    "coordinate": {
      "latitude": 33.047461,
      "longitude": -97.564125
    }
  },
  {
    "name": "Fairpoint 468",
    "coordinate": {
      "latitude": 39.579025,
      "longitude": -98.573257
    }
  },
  {
    "name": "Fairport 469",
    "coordinate": {
      "latitude": 44.380822,
      "longitude": -105.15353
    }
  },
  {
    "name": "Cedarmouth 470",
    "coordinate": {
      "latitude": 41.379877,
      "longitude": -81.851857
    }
  },
  {
    "name": "Silvercreek 471",
    "coordinate": {
      "latitude": 36.65891,
      "longitude": -96.301477
    }
  },
  {
    "name": "Springharbor 472",
    "coordinate": {
      "latitude": 30.746947,
      "longitude": -118.414209
    }
  },
  {
    "name": "Eastside 473",
    "coordinate": {
      "latitude": 26.529796,
      "longitude": -98.355336
    }
  },
  {
    "name": "Springcreek 474",
    "coordinate": {
      "latitude": 36.071351,
      "longitude": -107.075016
    }
  },
  {
    "name": "Cedarville 475",
    "coordinate": {
      "latitude": 44.650536,
      "longitude": -119.489467
    }
  },
  {
    "name": "Goldenfield 476",
    "coordinate": {
      "latitude": 44.544942,
      "longitude": -117.19397
    }
  },
  {
    "name": "Fortharbor 477",
    "coordinate": {
      "latitude": 45.273252,
      "longitude": -112.452083
    }
  },
  {
    "name": "Lakeford 478",
    "coordinate": {
      "latitude": 36.3174,
      "longitude": -116.494544
    }
  },
  {
    "name": "Fortsprings 479",
    "coordinate": {
      "latitude": 46.101962,
      "longitude": -97.843049
    }
  },
  {
    "name": "Portfalls 480",
    "coordinate": {
      "latitude": 29.839012,
      "longitude": -76.274993
    }
  },
  {
    "name": "Pinepoint 481",
    "coordinate": {
      "latitude": 42.709752,
      "longitude": -119.567085
    }
  },
  {
    "name": "Grandgrove 482",
    "coordinate": {
      "latitude": 33.826626,
      "longitude": -76.731706
    }
  },
  {
    "name": "Fairridge 483",
    "coordinate": {
      "latitude": 42.120153,
      "longitude": -73.446174
    }
  },
  {
    "name": "Redgrove 484",
    "coordinate": {
      "latitude": 45.698588,
      "longitude": -89.834419
    }
  },
  {
    "name": "Westton 485",
    "coordinate": {
      "latitude": 37.312198,
      "longitude": -108.652012
    }
  },
  {
    "name": "Springwood 486",
    "coordinate": {
      "latitude": 39.369772,
      "longitude": -96.897879
    }
  },
  {
    "name": "Westmouth 487",
    "coordinate": {
      "latitude": 45.65411,
      "longitude": -100.254873
    }
  },
  {
    "name": "Pinepoint 488",
    "coordinate": {
      "latitude": 31.931723,
      "longitude": -118.136931
    }
  },
  {
    "name": "Southport 489",
    "coordinate": {
      "latitude": 46.484702,
      "longitude": -120.752611
    }
  },
  {
    "name": "Silverpoint 490",
    "coordinate": {
      "latitude": 44.001875,
      "longitude": -81.245356
    }
  },
  {
    "name": "Pineview 491",
    "coordinate": {
      "latitude": 42.442466,
      "longitude": -78.624305
    }
  },
  {
    "name": "Silverfield 492",
    "coordinate": {
      "latitude": 46.213954,
      "longitude": -114.219324
    }
  },
  {
    "name": "Cedarville 493",
    "coordinate": {
      "latitude": 29.164254,
      "longitude": -100.388054
    }
  },
  {
    "name": "Mountfield 494",
    "coordinate": {
      "latitude": 46.615482,
      "longitude": -81.737887
    }
  },
  {
    "name": "Redpoint 495",
    "coordinate": {
      "latitude": 26.61844,
      "longitude": -122.732541
    }
  },
  {
    "name": "Grandgrove 496",
    "coordinate": {
      "latitude": 24.882015,
      "longitude": -121.475082
    }
  },
  {
    "name": "Mapleton 497",
    "coordinate": {
      "latitude": 29.486674,
      "longitude": -68.041983
    }
  },
  {
    "name": "Westfalls 498",
    "coordinate": {
      "latitude": 28.508417,
      "longitude": -78.976837
    }
  },
  {
    "name": "Grandview 499",
    "coordinate": {
      "latitude": 28.370708,
      "longitude": -78.496738
    }
  },
  {
    "name": "Westport 500",
    "coordinate": {
      "latitude": 39.305575,
      "longitude": -107.81646
    }
  },
  {
    "name": "Clearhollow 501",
    "coordinate": {
      "latitude": 38.014112,
      "longitude": -121.848588
    }
  },
  {
    "name": "Northton 502",
    "coordinate": {
      "latitude": 40.6253,
      "longitude": -85.842699
    }
  },
  {
    "name": "Clearwood 503",
    "coordinate": {
      "latitude": 39.049014,
      "longitude": -89.360321
    }
  },
  {
    "name": "Newhollow 504",
    "coordinate": {
      "latitude": 31.923817,
      "longitude": -109.266315
    }
  },
  {
    "name": "Lakepoint 505",
    "coordinate": {
      "latitude": 28.550957,
      "longitude": -105.318864
    }
  },
  {
    "name": "Oakwood 506",
    "coordinate": {
      "latitude": 25.437487,
      "longitude": -87.308755
    }
  },
  {
    "name": "Mapleside 507",
    "coordinate": {
      "latitude": 30.739888,
      "longitude": -108.221171
    }
  },
  {
    "name": "Blueport 508",
    "coordinate": {
      "latitude": 47.060563,
      "longitude": -71.12033
    }
  },
  {
    "name": "Westfalls 509",
    "coordinate": {
      "latitude": 43.165472,
      "longitude": -123.192551
    }
  },
  {
    "name": "Newfield 510",
    "coordinate": {
      "latitude": 43.933792,
      "longitude": -106.483392
    }
  },
  {
    "name": "Southpoint 511",
    "coordinate": {
      "latitude": 32.606247,
      "longitude": -102.125963
    }
  },
  {
    "name": "Greenfalls 512",
    "coordinate": {
      "latitude": 41.322992,
      "longitude": -109.645185
    }
  },
  {
    "name": "Southport 513",
    "coordinate": {
      "latitude": 28.75958,
      "longitude": -90.034699
    }
  },
  {
    "name": "Fortridge 514",
    "coordinate": {
      "latitude": 37.890233,
      "longitude": -101.856876
    }
  },
  {
    "name": "Redview 515",
    "coordinate": {
      "latitude": 35.36581,
      "longitude": -115.5203
    }
  },
  {
    "name": "Mountridge 516",
    "coordinate": {
      "latitude": 27.128959,
      "longitude": -121.184799
    }
  },
  {
    "name": "Lakeville 517",
    "coordinate": {
      "latitude": 48.144127,
      "longitude": -118.253171
    }
  },
  {
    "name": "Redpoint 518",
    "coordinate": {
      "latitude": 45.644457,
      "longitude": -118.190115
    }
  },
  {
    "name": "Grandhollow 519",
    "coordinate": {
      "latitude": 36.5536,
      "longitude": -108.509671
    }
  },
  {
    "name": "Mountford 520",
    "coordinate": {
      "latitude": 27.416359,
      "longitude": -103.405022
    }
  },
  {
    "name": "Maplemouth 521",
    "coordinate": {
      "latitude": 31.010075,
      "longitude": -70.460861
    }
  },
  {
    "name": "Southfalls 522",
    "coordinate": {
      "latitude": 43.194781,
      "longitude": -120.766373
    }
  },
  {
    "name": "Fairdale 523",
    "coordinate": {
      "latitude": 43.118777,
      "longitude": -104.352675
    }
  },
  {
    "name": "Maplepoint 524",
    "coordinate": {
      "latitude": 29.132399,
      "longitude": -115.864892
    }
  },
  {
    "name": "Fairton 525",
    "coordinate": {
      "latitude": 32.057151,
      "longitude": -94.016052
    }
  },
  {
    "name": "Forthollow 526",
    "coordinate": {
      "latitude": 35.592092,
      "longitude": -102.93741
    }
  },
  {
    "name": "Granddale 527",
    "coordinate": {
      "latitude": 36.046035,
      "longitude": -92.373123
    }
  },
  {
    "name": "Clearcreek 528",
    "coordinate": {
      "latitude": 29.120846,
      "longitude": -71.466025
    }
  },
  {
    "name": "Portford 529",
    "coordinate": {
      "latitude": 45.694892,
      "longitude": -99.47065
    }
  },
  {
    "name": "Redharbor 530",
    "coordinate": {
      "latitude": 41.856609,
      "longitude": -115.510051
    }
  },
  {
    "name": "Cedarton 531",
    "coordinate": {
      "latitude": 27.085733,
      "longitude": -73.371575
    }
  },
  {
    "name": "Fairmouth 532",
    "coordinate": {
      "latitude": 39.759178,
      "longitude": -92.66628
    }
  },
  {
    "name": "Southville 533",
    "coordinate": {
      "latitude": 47.169924,
      "longitude": -122.263144
    }
  },
  {
    "name": "Oakridge 534",
    "coordinate": {
      "latitude": 26.223466,
      "longitude": -89.369916
    }
  },
  {
    "name": "Portwood 535",
    "coordinate": {
      "latitude": 47.05205,
      "longitude": -123.570125
    }
  },
  {
    "name": "Greenfalls 536",
    "coordinate": {
      "latitude": 31.863342,
      "longitude": -74.520342
    }
  },
  {
    "name": "Fortridge 537",
    "coordinate": {
      "latitude": 40.385839,
      "longitude": -92.162096
    }
  },
  {
    "name": "Westheights 538",
    "coordinate": {
      "latitude": 38.303283,
      "longitude": -103.888513
    }
  },
  {
    "name": "Portdale 539",
    "coordinate": {
      "latitude": 30.262951,
      "longitude": -73.597787
    }
  },
  {
    "name": "Greenhollow 540",
    "coordinate": {
      "latitude": 27.800084,
      "longitude": -96.106885
    }
  },
  {
    "name": "Westsprings 541",
    "coordinate": {
      "latitude": 32.309373,
      "longitude": -122.285786
    }
  },
  {
    "name": "Grandridge 542",
    "coordinate": {
      "latitude": 31.21504,
      "longitude": -90.417271
    }
  },
  {
    "name": "Oakmouth 543",
    "coordinate": {
      "latitude": 42.142124,
      "longitude": -107.800454
    }
  },
  {
    "name": "Grandfalls 544",
    "coordinate": {
      "latitude": 38.915725,
      "longitude": -69.860812
    }
  },
  {
    "name": "Porthollow 545",
    "coordinate": {
      "latitude": 47.410355,
      "longitude": -92.111338
    }
  },
  {
    "name": "Riverford 546",
    "coordinate": {
      "latitude": 27.325137,
      "longitude": -103.376289
    }
  },
  {
    "name": "Fairside 547",
    "coordinate": {
      "latitude": 27.32589,
      "longitude": -87.019459
    }
  },
  {
    "name": "Silverford 548",
    "coordinate": {
      "latitude": 48.008526,
      "longitude": -94.165323
    }
  },
  {
    "name": "Fairburg 549",
    "coordinate": {
      "latitude": 29.757053,
      "longitude": -83.609247
    }
  },
  {
    "name": "Fortharbor 550",
    "coordinate": {
      "latitude": 25.69824,
      "longitude": -69.565742
    }
  },
  {
    "name": "Fortpoint 551",
    "coordinate": {
      "latitude": 29.909537,
      "longitude": -107.215995
    }
  },
  {
    "name": "Cedarcreek 552",
    "coordinate": {
      "latitude": 41.034038,
      "longitude": -81.402329
    }
  },
  {
    "name": "Greenville 553",
    "coordinate": {
      "latitude": 37.774926,
      "longitude": -108.075589
    }
  },
  {
    "name": "Southcreek 554",
    "coordinate": {
      "latitude": 34.772741,
      "longitude": -115.746682
    }
  },
  {
    "name": "Cedarharbor 555",
    "coordinate": {
      "latitude": 44.56629,
      "longitude": -102.593825
    }
  },
  {
    "name": "Bluesprings 556",
    "coordinate": {
      "latitude": 28.678749,
      "longitude": -116.774047
    }
  },
  {
    "name": "Blueside 557",
    "coordinate": {
      "latitude": 26.134471,
      "longitude": -75.103344
    }
  },
  {
    "name": "Southgrove 558",
    "coordinate": {
      "latitude": 35.280099,
      "longitude": -71.842056
    }
  },
  {
    "name": "Redsprings 559",
    "coordinate": {
      "latitude": 48.325312,
      "longitude": -95.685841
    }
  },
  {
    "name": "Silverford 560",
    "coordinate": {
      "latitude": 40.103008,
      "longitude": -112.404012
    }
  },
  {
    "name": "Lakefalls 561",
    "coordinate": {
      "latitude": 33.212013,
      "longitude": -101.2797
    }
  },
  {
    "name": "Redhollow 562",
    "coordinate": {
      "latitude": 45.951679,
      "longitude": -85.433428
    }
  },
  {
    "name": "Riverfield 563",
    "coordinate": {
      "latitude": 41.773712,
      "longitude": -108.154944
    }
  },
  {
    "name": "Mapleport 564",
    "coordinate": {
      "latitude": 43.865534,
      "longitude": -112.142915
    }
  },
  {
    "name": "Mapledale 565",
    "coordinate": {
      "latitude": 46.595207,
      "longitude": -82.206279
    }
  },
  {
    "name": "Goldenpoint 566",
    "coordinate": {
      "latitude": 32.599481,
      "longitude": -79.02149
    }
  },
  {
    "name": "Grandville 567",
    "coordinate": {
      "latitude": 26.187199,
      "longitude": -119.942004
    }
  },
  {
    "name": "Fortridge 568",
    "coordinate": {
      "latitude": 44.416676,
      "longitude": -122.369466
    }
  },
  {
    "name": "Newdale 569",
    "coordinate": {
      "latitude": 25.279509,
      "longitude": -83.246437
    }
  },
  {
    "name": "Clearheights 570",
    "coordinate": {
      "latitude": 29.374035,
      "longitude": -94.387425
    }
  },
  {
    "name": "Grandhollow 571",
    "coordinate": {
      "latitude": 41.587095,
      "longitude": -87.856503
    }
  },
  {
    "name": "Silverridge 572",
    "coordinate": {
      "latitude": 48.366931,
      "longitude": -74.476074
    }
  },
  {
    "name": "Redwood 573",
    "coordinate": {
      "latitude": 44.986199,
      "longitude": -119.089413
    }
  },
  {
    "name": "Cedarharbor 574",
    "coordinate": {
      "latitude": 27.089137,
      "longitude": -122.166019
    }
  },
  {
    "name": "Clearville 575",
    "coordinate": {
      "latitude": 29.104941,
      "longitude": -72.73599
    }
  },
  {
    "name": "Mountport 576",
    "coordinate": {
      "latitude": 46.394913,
      "longitude": -93.718428
    }
  },
  {
    "name": "Redharbor 577",
    "coordinate": {
      "latitude": 33.658514,
      "longitude": -91.377152
    }
  },
  {
    "name": "Cedardale 578",
    "coordinate": {
      "latitude": 35.471585,
      "longitude": -116.970562
    }
  },
  {
    "name": "Redridge 579",
    "coordinate": {
      "latitude": 47.491892,
      "longitude": -105.817652
    }
  },
  {
    "name": "Northsprings 580",
    "coordinate": {
      "latitude": 42.373566,
      "longitude": -86.159016
    }
  },
  {
    "name": "Goldenmouth 581",
    "coordinate": {
      "latitude": 44.435483,
      "longitude": -80.365177
    }
  },
  {
    "name": "Newpoint 582",
    "coordinate": {
      "latitude": 35.234944,
      "longitude": -79.487111
    }
  },
  {
    "name": "Goldencreek 583",
    "coordinate": {
      "latitude": 32.781763,
      "longitude": -98.536751
    }
  },
  {
    "name": "Silverview 584",
    "coordinate": {
      "latitude": 24.665117,
      "longitude": -72.185283
    }
  },
  {
    "name": "Silverdale 585",
    "coordinate": {
      "latitude": 33.236542,
      "longitude": -85.224792
    }
  },
  {
    "name": "Fairton 586",
    "coordinate": {
      "latitude": 36.465661,
      "longitude": -80.699697
    }
  },
  {
    "name": "Riverport 587",
    "coordinate": {
      "latitude": 25.43165,
      "longitude": -101.314526
    }
  },
  {
    "name": "Greensprings 588",
    "coordinate": {
      "latitude": 34.26433,
      "longitude": -95.450551
    }
  },
  {
    "name": "Eastview 589",
    "coordinate": {
      "latitude": 30.778272,
      "longitude": -94.776011
    }
  },
  {
    "name": "Riverdale 590",
    "coordinate": {
      "latitude": 27.530865,
      "longitude": -87.319406
    }
  },
  {
    "name": "Northcreek 591",
    "coordinate": {
      "latitude": 29.351124,
      "longitude": -112.154277
    }
  },
  {
    "name": "Grandfield 592",
    "coordinate": {
      "latitude": 48.953034,
      "longitude": -122.054082
    }
  },
  {
    "name": "Clearport 593",
    "coordinate": {
      "latitude": 40.453164,
      "longitude": -119.158247
    }
  },
  {
    "name": "Portview 594",
    "coordinate": {
      "latitude": 38.387898,
      "longitude": -112.050194
    }
  },
  {
    "name": "Mountwood 595",
    "coordinate": {
      "latitude": 41.50306,
      "longitude": -99.793777
    }
  },
  {
    "name": "Portheights 596",
    "coordinate": {
      "latitude": 49.300337,
      "longitude": -77.707585
    }
  },
  {
    "name": "Southdale 597",
    "coordinate": {
      "latitude": 40.959672,
      "longitude": -113.750105
    }
  },
  {
    "name": "Oakharbor 598",
    "coordinate": {
      "latitude": 43.112019,
      "longitude": -97.011269
    }
  },
  {
    "name": "Cedarview 599",
    "coordinate": {
      "latitude": 48.065349,
      "longitude": -75.055734
    }
  },
  {
    "name": "Riverfalls 600",
    "coordinate": {
      "latitude": 44.591606,
      "longitude": -82.918885
    }
  },
  {
    "name": "Mountsprings 601",
    "coordinate": {
      "latitude": 24.733831,
      "longitude": -112.28494
    }
  },
  {
    "name": "Southwood 602",
    "coordinate": {
      "latitude": 42.865003,
      "longitude": -73.241655
    }
  },
  {
    "name": "Fairford 603",
    "coordinate": {
      "latitude": 27.952086,
      "longitude": -76.868603
    }
  },
  {
    "name": "Goldenville 604",
    "coordinate": {
      "latitude": 39.567611,
      "longitude": -73.934914
    }
  },
  {
    "name": "Springfalls 605",
    "coordinate": {
      "latitude": 36.119352,
      "longitude": -77.607305
    }
  },
  {
    "name": "Blueton 606",
    "coordinate": {
      "latitude": 46.474824,
      "longitude": -92.316164
    }
  },
  {
    "name": "Fairridge 607",
    "coordinate": {
      "latitude": 34.233517,
      "longitude": -85.410616
    }
  },
  {
    "name": "Westcreek 608",
    "coordinate": {
      "latitude": 43.252481,
      "longitude": -123.478315
    }
  },
  {
    "name": "Eastridge 609",
    "coordinate": {
      "latitude": 32.608505,
      "longitude": -104.165293
    }
  },
  {
    "name": "Grandwood 610",
    "coordinate": {
      "latitude": 27.14137,
      "longitude": -82.59853
    }
  },
  {
    "name": "Redford 611",
    "coordinate": {
      "latitude": 45.222795,
      "longitude": -89.650096
    }
  },
  {
    "name": "Maplecreek 612",
    "coordinate": {
      "latitude": 41.577888,
      "longitude": -111.385882
    }
  },
  {
    "name": "Lakegrove 613",
    "coordinate": {
      "latitude": 28.600532,
      "longitude": -86.783753
    }
  },
  {
    "name": "Grandview 614",
    "coordinate": {
      "latitude": 42.525382,
      "longitude": -96.700358
    }
  },
  {
    "name": "Springmouth 615",
    "coordinate": {
      "latitude": 33.622768,
      "longitude": -123.626668
    }
  },
  {
    "name": "Blueridge 616",
    "coordinate": {
      "latitude": 31.473009,
      "longitude": -67.597938
    }
  },
  {
    "name": "Silverburg 617",
    "coordinate": {
      "latitude": 36.012894,
      "longitude": -120.846185
    }
  },
  {
    "name": "Lakeford 618",
    "coordinate": {
      "latitude": 37.74668,
      "longitude": -77.414164
    }
  },
  {
    "name": "Silverridge 619",
    "coordinate": {
      "latitude": 42.08082,
      "longitude": -81.423612
    }
  },
  {
    "name": "Portgrove 620",
    "coordinate": {
      "latitude": 39.400433,
      "longitude": -88.228087
    }
  },
  {
    "name": "Greenford 621",
    "coordinate": {
      "latitude": 41.338031,
      "longitude": -117.320029
    }
  },
  {
    "name": "Northridge 622",
    "coordinate": {
      "latitude": 27.598046,
      "longitude": -99.835947
    }
  },
  {
    "name": "Fortton 623",
    "coordinate": {
      "latitude": 34.338151,
      "longitude": -99.160333
    }
  },
  {
    "name": "Newford 624",
    "coordinate": {
      "latitude": 43.06341,
      "longitude": -103.940824
    }
  },
  {
    "name": "Grandharbor 625",
    "coordinate": {
      "latitude": 33.896982,
      "longitude": -116.237555
    }
  },
  {
    "name": "Oakview 626",
    "coordinate": {
      "latitude": 48.030257,
      "longitude": -112.222196
    }
  },
  {
    "name": "Cedarside 627",
    "coordinate": {
      "latitude": 44.756659,
      "longitude": -76.850251
    }
  },
  {
    "name": "Rivergrove 628",
    "coordinate": {
      "latitude": 32.7728,
      "longitude": -76.447234
    }
  },
  {
    "name": "Greenheights 629",
    "coordinate": {
      "latitude": 30.794738,
      "longitude": -117.033799
    }
  },
  {
    "name": "Silvercreek 630",
    "coordinate": {
      "latitude": 32.668172,
      "longitude": -123.453798
    }
  },
  {
    "name": "Redview 631",
    "coordinate": {
      "latitude": 31.330253,
      "longitude": -74.383614
    }
  },
  {
    "name": "Clearton 632",
    "coordinate": {
      "latitude": 39.593654,
      "longitude": -86.15201
    }
  },
  {
    "name": "Grandwood 633",
    "coordinate": {
      "latitude": 40.538834,
      "longitude": -111.560228
    }
  },
  {
    "name": "Cedarfield 634",
    "coordinate": {
      "latitude": 43.645161,
      "longitude": -94.701333
    }
  },
  {
    "name": "Westville 635",
    "coordinate": {
      "latitude": 48.727112,
      "longitude": -73.495449
    }
  },
  {
    "name": "Eastton 636",
    "coordinate": {
      "latitude": 45.951644,
      "longitude": -110.396553
    }
  },
  {
    "name": "Eastridge 637",
    "coordinate": {
      "latitude": 27.723929,
      "longitude": -75.935893
    }
  },
  {
    "name": "Grandheights 638",
    "coordinate": {
      "latitude": 25.072345,
      "longitude": -93.600512
    }
  },
  {
    "name": "Silversprings 639",
    "coordinate": {
      "latitude": 45.675556,
      "longitude": -76.417655
    }
  },
  {
    "name": "Eastton 640",
    "coordinate": {
      "latitude": 30.218215,
      "longitude": -73.712668
    }
  },
  {
    "name": "Forthollow 641",
    "coordinate": {
      "latitude": 28.200984,
      "longitude": -81.786612
    }
  },
  {
    "name": "Newwood 642",
    "coordinate": {
      "latitude": 27.123331,
      "longitude": -68.318363
    }
  },
  {
    "name": "Fairwood 643",
    "coordinate": {
      "latitude": 45.553998,
      "longitude": -78.971296
    }
  },
  {
    "name": "Grandford 644",
    "coordinate": {
      "latitude": 35.66936,
      "longitude": -81.346201
    }
  },
  {
    "name": "Clearpoint 645",
    "coordinate": {
      "latitude": 42.155296,
      "longitude": -77.199718
    }
  },
  {
    "name": "Clearside 646",
    "coordinate": {
      "latitude": 42.428047,
      "longitude": -71.285383
    }
  },
  {
    "name": "Oakview 647",
    "coordinate": {
      "latitude": 41.035508,
      "longitude": -96.018054
    }
  },
  {
    "name": "Southharbor 648",
    "coordinate": {
      "latitude": 29.659817,
      "longitude": -103.833631
    }
  },
  {
    "name": "Springmouth 649",
    "coordinate": {
      "latitude": 37.037723,
      "longitude": -90.467133
    }
  },
  {
    "name": "Clearford 650",
    "coordinate": {
      "latitude": 40.352347,
      "longitude": -105.34961
    }
  },
  {
    "name": "Fortport 651",
    "coordinate": {
      "latitude": 46.826407,
      "longitude": -115.527042
    }
  },
  {
    "name": "Newfalls 652",
    "coordinate": {
      "latitude": 44.837265,
      "longitude": -107.337447
    }
  },
  {
    "name": "Northsprings 653",
    "coordinate": {
      "latitude": 40.024527,
      "longitude": -121.51453
    }
  },
  {
    "name": "Southcreek 654",
    "coordinate": {
      "latitude": 44.529178,
      "longitude": -98.921747
    }
  },
  {
    "name": "Clearheights 655",
    "coordinate": {
      "latitude": 30.602458,
      "longitude": -112.701891
    }
  },
  {
    "name": "Bluegrove 656",
    "coordinate": {
      "latitude": 25.112772,
      "longitude": -102.894935
    }
  },
  {
    "name": "Southfield 657",
    "coordinate": {
      "latitude": 25.667006,
      "longitude": -98.311097
    }
  },
  {
    "name": "Pinewood 658",
    "coordinate": {
      "latitude": 36.692913,
      "longitude": -110.481524
    }
  },
  {
    "name": "Portsprings 659",
    "coordinate": {
      "latitude": 31.037795,
      "longitude": -79.528409
    }
  },
  {
    "name": "Fairhollow 660",
    "coordinate": {
      "latitude": 39.552654,
      "longitude": -97.713961
    }
  },
  {
    "name": "Cedarhollow 661",
    "coordinate": {
      "latitude": 39.033338,
      "longitude": -80.953715
    }
  },
  {
    "name": "Springheights 662",
    "coordinate": {
      "latitude": 45.995002,
      "longitude": -97.535801
    }
  },
  {
    "name": "Southfield 663",
    "coordinate": {
      "latitude": 33.992116,
      "longitude": -67.056895
    }
  },
  {
    "name": "Cedarcreek 664",
    "coordinate": {
      "latitude": 43.740009,
      "longitude": -113.358302
    }
  },
  {
    "name": "Cedarsprings 665",
    "coordinate": {
      "latitude": 29.244983,
      "longitude": -99.003914
    }
  },
  {
    "name": "Clearwood 666",
    "coordinate": {
      "latitude": 40.635044,
      "longitude": -88.144439
    }
  },
  {
    "name": "Pineview 667",
    "coordinate": {
      "latitude": 47.413938,
      "longitude": -71.609997
    }
  },
  {
    "name": "Fairton 668",
    "coordinate": {
      "latitude": 43.456325,
      "longitude": -87.78766
    }
  },
  {
    "name": "Silverwood 669",
    "coordinate": {
      "latitude": 26.179845,
      "longitude": -115.873775
    }
  },
  {
    "name": "Fairmouth 670",
    "coordinate": {
      "latitude": 29.43877,
      "longitude": -82.326877
    }
  },
  {
    "name": "Northview 671",
    "coordinate": {
      "latitude": 34.511599,
      "longitude": -111.679175
    }
  },
  {
    "name": "Portton 672",
    "coordinate": {
      "latitude": 38.729927,
      "longitude": -94.588148
    }
  },
  {
    "name": "Mountburg 673",
    "coordinate": {
      "latitude": 29.397554,
      "longitude": -72.34334
    }
  },
  {
    "name": "Cedarside 674",
    "coordinate": {
      "latitude": 26.405533,
      "longitude": -123.983139
    }
  },
  {
    "name": "Clearport 675",
    "coordinate": {
      "latitude": 35.164866,
      "longitude": -83.553563
    }
  },
  {
    "name": "Fairton 676",
    "coordinate": {
      "latitude": 31.951395,
      "longitude": -83.887659
    }
  },
  {
    "name": "Oakhollow 677",
    "coordinate": {
      "latitude": 39.940953,
      "longitude": -85.71829
    }
  },
  {
    "name": "Lakewood 678",
    "coordinate": {
      "latitude": 39.103885,
      "longitude": -119.675171
    }
  },
  {
    "name": "Northgrove 679",
    "coordinate": {
      "latitude": 24.838527,
      "longitude": -116.363553
    }
  },
  {
    "name": "Cleargrove 680",
    "coordinate": {
      "latitude": 24.69885,
      "longitude": -114.960172
    }
  },
  {
    "name": "Lakesprings 681",
    "coordinate": {
      "latitude": 31.401523,
      "longitude": -86.661416
    }
  },
  {
    "name": "Greenfield 682",
    "coordinate": {
      "latitude": 49.390057,
      "longitude": -103.764273
    }
  },
  {
    "name": "Grandharbor 683",
    "coordinate": {
      "latitude": 38.739481,
      "longitude": -114.977814
    }
  },
  {
    "name": "Northheights 684",
    "coordinate": {
      "latitude": 48.59498,
      "longitude": -84.15498
    }
  },
  {
    "name": "Mapleheights 685",
    "coordinate": {
      "latitude": 37.329673,
      "longitude": -100.745101
    }
  },
  {
    "name": "Pineton 686",
    "coordinate": {
      "latitude": 29.960241,
      "longitude": -121.332435
    }
  },
  {
    "name": "Westdale 687",
    "coordinate": {
      "latitude": 45.54902,
      "longitude": -89.824893
    }
  },
  {
    "name": "Grandfalls 688",
    "coordinate": {
      "latitude": 29.134939,
      "longitude": -70.683019
    }
  },
  {
    "name": "Goldenfalls 689",
    "coordinate": {
      "latitude": 47.790677,
      "longitude": -105.737009
    }
  },
  {
    "name": "Oakgrove 690",
    "coordinate": {
      "latitude": 28.462842,
      "longitude": -109.868465
    }
  },
  {
    "name": "Lakeharbor 691",
    "coordinate": {
      "latitude": 29.753018,
      "longitude": -84.62694
    }
  },
  {
    "name": "Oakview 692",
    "coordinate": {
      "latitude": 37.041243,
      "longitude": -79.902279
    }
  },
  {
    "name": "Riverport 693",
    "coordinate": {
      "latitude": 42.221615,
      "longitude": -77.689389
    }
  },
  {
    "name": "Oakwood 694",
    "coordinate": {
      "latitude": 44.973741,
      "longitude": -67.295807
    }
  },
  {
    "name": "Redridge 695",
    "coordinate": {
      "latitude": 47.362826,
      "longitude": -122.130722
    }
  },
  {
    "name": "Portfield 696",
    "coordinate": {
      "latitude": 46.895727,
      "longitude": -97.46476
    }
  },
  {
    "name": "Redton 697",
    "coordinate": {
      "latitude": 32.242273,
      "longitude": -91.650794
    }
  },
  {
    "name": "Bluepoint 698",
    "coordinate": {
      "latitude": 24.911363,
      "longitude": -79.662196
    }
  },
  {
    "name": "Greenmouth 699",
    "coordinate": {
      "latitude": 37.638577,
      "longitude": -67.336348
    }
  },
  {
    "name": "Faircreek 700",
    "coordinate": {
      "latitude": 35.626767,
      "longitude": -79.197455
    }
  },
  {
    "name": "Fortfalls 701",
    "coordinate": {
      "latitude": 30.20912,
      "longitude": -101.142644
    }
  },
  {
    "name": "Pinefield 702",
    "coordinate": {
      "latitude": 40.091491,
      "longitude": -113.043704
    }
  },
  {
    "name": "Clearwood 703",
    "coordinate": {
      "latitude": 30.004173,
      "longitude": -67.133938
    }
  },
  {
    "name": "Westford 704",
    "coordinate": {
      "latitude": 48.955192,
      "longitude": -112.210001
    }
  },
  {
    "name": "Silverheights 705",
    "coordinate": {
      "latitude": 40.118293,
      "longitude": -79.148142
    }
  },
  {
    "name": "Southcreek 706",
    "coordinate": {
      "latitude": 39.220989,
      "longitude": -75.693011
    }
  },
  {
    "name": "Mapleburg 707",
    "coordinate": {
      "latitude": 25.630317,
      "longitude": -86.367304
    }
  },
  {
    "name": "Redfalls 708",
    "coordinate": {
      "latitude": 47.470698,
      "longitude": -102.768447
    }
  },
  {
    "name": "Fairgrove 709",
    "coordinate": {
      "latitude": 37.412454,
      "longitude": -72.968217
    }
  },
  {
    "name": "Fortridge 710",
    "coordinate": {
      "latitude": 39.085677,
      "longitude": -90.719007
    }
  },
  {
    "name": "Lakemouth 711",
    "coordinate": {
      "latitude": 46.995244,
      "longitude": -102.356832
    }
  },
  {
    "name": "Greenton 712",
    "coordinate": {
      "latitude": 30.899131,
      "longitude": -109.435479
    }
  },
  {
    "name": "Springpoint 713",
    "coordinate": {
      "latitude": 42.8401,
      "longitude": -115.626935
    }
  },
  {
    "name": "Silverburg 714",
    "coordinate": {
      "latitude": 34.542304,
      "longitude": -74.426272
    }
  },
  {
    "name": "Fairfield 715",
    "coordinate": {
      "latitude": 34.568084,
      "longitude": -108.364283
    }
  },
  {
    "name": "Redridge 716",
    "coordinate": {
      "latitude": 29.63378,
      "longitude": -84.003257
    }
  },
  {
    "name": "Newport 717",
    "coordinate": {
      "latitude": 43.779182,
      "longitude": -91.461083
    }
  },
  {
    "name": "Cedarmouth 718",
    "coordinate": {
      "latitude": 27.90643,
      "longitude": -76.152382
    }
  },
  {
    "name": "Eastside 719",
    "coordinate": {
      "latitude": 42.785686,
      "longitude": -103.298427
    }
  },
  {
    "name": "Eastville 720",
    "coordinate": {
      "latitude": 25.833021,
      "longitude": -92.665549
    }
  },
  {
    "name": "Fairsprings 721",
    "coordinate": {
      "latitude": 34.114468,
      "longitude": -116.829845
    }
  },
  {
    "name": "Fortfalls 722",
    "coordinate": {
      "latitude": 36.802836,
      "longitude": -92.263973
    }
  },
  {
    "name": "Greenfalls 723",
    "coordinate": {
      "latitude": 26.433198,
      "longitude": -86.539754
    }
  },
  {
    "name": "Goldenfield 724",
    "coordinate": {
      "latitude": 38.429107,
      "longitude": -76.684766
    }
  },
  {
    "name": "Mountmouth 725",
    "coordinate": {
      "latitude": 42.946739,
      "longitude": -85.421197
    }
  },
  {
    "name": "Westridge 726",
    "coordinate": {
      "latitude": 34.529804,
      "longitude": -107.650503
    }
  },
  {
    "name": "Mountton 727",
    "coordinate": {
      "latitude": 33.185882,
      "longitude": -98.355581
    }
  },
  {
    "name": "Silverhollow 728",
    "coordinate": {
      "latitude": 42.939638,
      "longitude": -110.176897
    }
  },
  {
    "name": "Portdale 729",
    "coordinate": {
      "latitude": 33.225293,
      "longitude": -75.865159
    }
  },
  {
    "name": "Mountfalls 730",
    "coordinate": {
      "latitude": 38.816151,
      "longitude": -90.012909
    }
  },
  {
    "name": "Springsprings 731",
    "coordinate": {
      "latitude": 25.705401,
      "longitude": -83.281961
    }
  },
  {
    "name": "Greenpoint 732",
    "coordinate": {
      "latitude": 32.463101,
      "longitude": -105.332979
    }
  },
  {
    "name": "Grandsprings 733",
    "coordinate": {
      "latitude": 38.589448,
      "longitude": -74.169985
    }
  },
  {
    "name": "Lakefalls 734",
    "coordinate": {
      "latitude": 35.053525,
      "longitude": -109.489645
    }
  },
  {
    "name": "Southmouth 735",
    "coordinate": {
      "latitude": 31.169535,
      "longitude": -117.709731
    }
  },
  {
    "name": "Silverfalls 736",
    "coordinate": {
      "latitude": 30.439676,
      "longitude": -89.615721
    }
  },
  {
    "name": "Westridge 737",
    "coordinate": {
      "latitude": 38.425694,
      "longitude": -92.940413
    }
  },
  {
    "name": "Rivergrove 738",
    "coordinate": {
      "latitude": 41.54141,
      "longitude": -120.252935
    }
  },
  {
    "name": "Silverside 739",
    "coordinate": {
      "latitude": 34.531902,
      "longitude": -89.455449
    }
  },
  {
    "name": "Greenhollow 740",
    "coordinate": {
      "latitude": 30.264573,
      "longitude": -90.639259
    }
  },
  {
    "name": "Cedarford 741",
    "coordinate": {
      "latitude": 44.873469,
      "longitude": -79.906509
    }
  },
  {
    "name": "Northsprings 742",
    "coordinate": {
      "latitude": 40.377719,
      "longitude": -118.001115
    }
  },
  {
    "name": "Newview 743",
    "coordinate": {
      "latitude": 42.457395,
      "longitude": -85.173348
    }
  },
  {
    "name": "Grandburg 744",
    "coordinate": {
      "latitude": 36.242096,
      "longitude": -79.108292
    }
  },
  {
    "name": "Redton 745",
    "coordinate": {
      "latitude": 24.901202,
      "longitude": -110.277694
    }
  },
  {
    "name": "Blueharbor 746",
    "coordinate": {
      "latitude": 34.977875,
      "longitude": -98.197387
    }
  },
  {
    "name": "Mountridge 747",
    "coordinate": {
      "latitude": 30.280688,
      "longitude": -103.943813
    }
  },
  {
    "name": "Pineview 748",
    "coordinate": {
      "latitude": 30.532043,
      "longitude": -92.753952
    }
  },
  {
    "name": "Mapleharbor 749",
    "coordinate": {
      "latitude": 33.072731,
      "longitude": -114.70274
    }
  },
  {
    "name": "Westside 750",
    "coordinate": {
      "latitude": 37.465061,
      "longitude": -73.750636
    }
  },
  {
    "name": "Eastharbor 751",
    "coordinate": {
      "latitude": 35.398134,
      "longitude": -101.517633
    }
  },
  {
    "name": "Cedarburg 752",
    "coordinate": {
      "latitude": 34.124001,
      "longitude": -110.828584
    }
  },
  {
    "name": "Springheights 753",
    "coordinate": {
      "latitude": 45.48201,
      "longitude": -115.864372
    }
  },
  {
    "name": "Goldenmouth 754",
    "coordinate": {
      "latitude": 38.50998,
      "longitude": -84.777753
    }
  },
  {
    "name": "Granddale 755",
    "coordinate": {
      "latitude": 26.875551,
      "longitude": -98.916093
    }
  },
  {
    "name": "Oakview 756",
    "coordinate": {
      "latitude": 32.784419,
      "longitude": -97.970513
    }
  },
  {
    "name": "Fairfield 757",
    "coordinate": {
      "latitude": 39.59261,
      "longitude": -123.221712
    }
  },
  {
    "name": "Goldenwood 758",
    "coordinate": {
      "latitude": 36.831945,
      "longitude": -85.590981
    }
  },
  {
    "name": "Goldenport 759",
    "coordinate": {
      "latitude": 49.301272,
      "longitude": -80.179851
    }
  },
  {
    "name": "Westridge 760",
    "coordinate": {
      "latitude": 30.471091,
      "longitude": -95.303361
    }
  },
  {
    "name": "Maplefalls 761",
    "coordinate": {
      "latitude": 31.152287,
      "longitude": -105.56794
    }
  },
  {
    "name": "Riverridge 762",
    "coordinate": {
      "latitude": 41.692958,
      "longitude": -83.197758
    }
  },
  {
    "name": "Oakville 763",
    "coordinate": {
      "latitude": 48.699342,
      "longitude": -82.414863
    }
  },
  {
    "name": "Riverport 764",
    "coordinate": {
      "latitude": 26.977076,
      "longitude": -83.202933
    }
  },
  {
    "name": "Rivercreek 765",
    "coordinate": {
      "latitude": 45.978349,
      "longitude": -90.95781
    }
  },
  {
    "name": "Springharbor 766",
    "coordinate": {
      "latitude": 28.428908,
      "longitude": -75.058262
    }
  },
  {
    "name": "Eastside 767",
    "coordinate": {
      "latitude": 42.148973,
      "longitude": -114.142113
    }
  },
  {
    "name": "Portview 768",
    "coordinate": {
      "latitude": 46.122318,
      "longitude": -76.504171
    }
  },
  {
    "name": "Springheights 769",
    "coordinate": {
      "latitude": 26.042648,
      "longitude": -121.04966
    }
  },
  {
    "name": "Silverdale 770",
    "coordinate": {
      "latitude": 24.708381,
      "longitude": -74.626178
    }
  },
  {
    "name": "Silverridge 771",
    "coordinate": {
      "latitude": 25.800364,
      "longitude": -119.549384
    }
  },
  {
    "name": "Fairfield 772",
    "coordinate": {
      "latitude": 41.625399,
      "longitude": -100.95933
    }
  },
  {
    "name": "Portside 773",
    "coordinate": {
      "latitude": 24.917355,
      "longitude": -74.407692
    }
  },
  {
    "name": "Mapleport 774",
    "coordinate": {
      "latitude": 31.813778,
      "longitude": -90.023693
    }
  },
  {
    "name": "Mountville 775",
    "coordinate": {
      "latitude": 29.445979,
      "longitude": -72.676945
    }
  },
  {
    "name": "Springcreek 776",
    "coordinate": {
      "latitude": 24.72668,
      "longitude": -94.27224
    }
  },
  {
    "name": "Greenton 777",
    "coordinate": {
      "latitude": 27.348912,
      "longitude": -117.479727
    }
  },
  {
    "name": "Fortgrove 778",
    "coordinate": {
      "latitude": 44.941532,
      "longitude": -79.90455
    }
  },
  {
    "name": "Clearsprings 779",
    "coordinate": {
      "latitude": 36.562348,
      "longitude": -106.046715
    }
  },
  {
    "name": "Eastcreek 780",
    "coordinate": {
      "latitude": 33.147775,
      "longitude": -68.32924
    }
  },
  {
    "name": "Cedarharbor 781",
    "coordinate": {
      "latitude": 30.856708,
      "longitude": -106.043022
    }
  },
  {
    "name": "Oakhollow 782",
    "coordinate": {
      "latitude": 37.325962,
      "longitude": -73.804488
    }
  },
  {
    "name": "Mountton 783",
    "coordinate": {
      "latitude": 40.601441,
      "longitude": -79.449463
    }
  },
  {
    "name": "Mapleharbor 784",
    "coordinate": {
      "latitude": 35.000384,
      "longitude": -72.309227
    }
  },
  {
    "name": "Cedarview 785",
    "coordinate": {
      "latitude": 26.361611,
      "longitude": -111.553589
    }
  },
  {
    "name": "Riverfield 786",
    "coordinate": {
      "latitude": 40.931985,
      "longitude": -117.666326
    }
  },
  {
    "name": "Grandfalls 787",
    "coordinate": {
      "latitude": 43.238968,
      "longitude": -120.778483
    }
  },
  {
    "name": "Lakefalls 788",
    "coordinate": {
      "latitude": 45.836639,
      "longitude": -66.92497
    }
  },
  {
    "name": "Goldenton 789",
    "coordinate": {
      "latitude": 47.312,
      "longitude": -115.973564
    }
  },
  {
    "name": "Northmouth 790",
    "coordinate": {
      "latitude": 44.436908,
      "longitude": -113.351609
    }
  },
  {
    "name": "Eastridge 791",
    "coordinate": {
      "latitude": 41.992505,
      "longitude": -75.077666
    }
  },
  {
    "name": "Newburg 792",
    "coordinate": {
      "latitude": 32.373673,
      "longitude": -109.134127
    }
  },
  {
    "name": "Redport 793",
    "coordinate": {
      "latitude": 31.76753,
      "longitude": -104.471461
    }
  },
  {
    "name": "Porthollow 794",
    "coordinate": {
      "latitude": 33.106851,
      "longitude": -119.670428
    }
  },
  {
    "name": "Greenridge 795",
    "coordinate": {
      "latitude": 37.708598,
      "longitude": -107.076738
    }
  },
  {
    "name": "Southhollow 796",
    "coordinate": {
      "latitude": 27.528534,
      "longitude": -71.070977
    }
  },
  {
    "name": "Lakefalls 797",
    "coordinate": {
      "latitude": 38.751662,
      "longitude": -113.688215
    }
  },
  {
    "name": "Greenburg 798",
    "coordinate": {
      "latitude": 48.90562,
      "longitude": -100.983753
    }
  },
  {
    "name": "Eastford 799",
    "coordinate": {
      "latitude": 30.007152,
      "longitude": -114.544893
    }
  },
  {
    "name": "Blueton 800",
    "coordinate": {
      "latitude": 28.163273,
      "longitude": -74.480655
    }
  },
  {
    "name": "Fairville 801",
    "coordinate": {
      "latitude": 47.487943,
      "longitude": -90.630658
    }
  },
  {
    "name": "Lakefalls 802",
    "coordinate": {
      "latitude": 47.912165,
      "longitude": -104.022237
    }
  },
  {
    "name": "Redmouth 803",
    "coordinate": {
      "latitude": 28.163655,
      "longitude": -93.474444
    }
  },
  {
    "name": "Lakecreek 804",
    "coordinate": {
      "latitude": 38.662613,
      "longitude": -91.117946
    }
  },
  {
    "name": "Clearfield 805",
    "coordinate": {
      "latitude": 44.402404,
      "longitude": -117.536297
    }
  },
  {
    "name": "Westharbor 806",
    "coordinate": {
      "latitude": 29.822775,
      "longitude": -120.71708
    }
  },
  {
    "name": "Portgrove 807",
    "coordinate": {
      "latitude": 29.409429,
      "longitude": -87.133721
    }
  },
  {
    "name": "Mountheights 808",
    "coordinate": {
      "latitude": 34.236055,
      "longitude": -90.660784
    }
  },
  {
    "name": "Riverton 809",
    "coordinate": {
      "latitude": 49.303012,
      "longitude": -101.880439
    }
  },